#version,serial,flight,call,time,state,state_name,acceleration,pressure,altitude,height,speed,temperature,drogue_voltage,main_voltage,battery_voltage,accel_x,accel_y,accel_z,gyro_roll,gyro_pitch,gyro_yaw,mag_x,mag_y,mag_z,tilt,pyro,igniter_a,igniter_b,igniter_c,igniter_d,connected,locked,nsat,latitude,longitude,altitude,year,month,day,hour,minute,second,pad_dist,pad_range,pad_az,pad_el,pdop,hdop,vdop,sat01,sat02,sat03,sat04,sat05,sat06,sat07,sat08,sat09,sat10,sat11,sat12,sat13,sat14,sat15,sat16,sat17,sat18,sat19,sat20,sat21,sat22,sat23,sat24,sat25,sat26,sat27,sat28,sat29,sat30,sat31,sat32,,,,,,,,,,,,,,,,,,,,,,,,,,,,,,,,,,,,,,,,,,,,,,,,,,,,,,,
6,6608,9,VKACP,-0.3,3,   boost,1.96,101041,23.67,-0.5,     NaN,35,8.09,8.09,4.01,0,0,0,0,-0.06,0,0,0,0,    NaN,8.08,8.13,8.12,0,0,1,1,15,-32.7595028,142.4868698,71,2025,4,23,3,32,0,0,0,0,0,1,0.6,0.8,0,0,29,26,0,29,35,22,30,0,43,0,0,0,0,30,0,0,0,42,0,0,0,0,0,36,22,0,0,28,0,0,,,,,,,,,,,,,,,,,,,,,,,,,,,,,,,,,,,,,,,,,,,,,,,,,,,,,,,
6,6608,9,VKACP,-0.29,3,   boost,0,101029,24.67,0.5,     NaN,35,8.09,8.09,4.01,0,10.26,0,130.19,130.31,0,0,0,0,    NaN,8.08,8.13,8.12,0,0,1,1,15,-32.7595028,142.4868698,71,2025,4,23,3,32,0,0,0,0,0,1,0.6,0.8,0,0,29,26,0,29,35,22,30,0,43,0,0,0,0,30,0,0,0,42,0,0,0,0,0,36,22,0,0,28,0,0,,,,,,,,,,,,,,,,,,,,,,,,,,,,,,,,,,,,,,,,,,,,,,,,,,,,,,,
6,6608,9,VKACP,-0.28,3,   boost,1.47,101056,22.42,-1.75,     NaN,35,8.09,8.09,4.01,0,10.26,0,130.19,130.31,0,0,0,0,    NaN,8.08,8.13,8.12,0,0,1,1,15,-32.7595028,142.4868698,71,2025,4,23,3,32,0,0,0,0,0,1,0.6,0.8,0,0,29,26,0,29,35,22,30,0,43,0,0,0,0,30,0,0,0,42,0,0,0,0,0,36,22,0,0,28,0,0,,,,,,,,,,,,,,,,,,,,,,,,,,,,,,,,,,,,,,,,,,,,,,,,,,,,,,,
6,6608,9,VKACP,-0.27,3,   boost,-1.47,101032,24.42,0.25,     NaN,35,8.09,8.09,4.01,0,10.26,0,130.19,130.31,0,0,0,0,    NaN,8.08,8.13,8.12,0,0,1,1,15,-32.7595028,142.4868698,71,2025,4,23,3,32,0,0,0,0,0,1,0.6,0.8,0,0,29,26,0,29,35,22,30,0,43,0,0,0,0,30,0,0,0,42,0,0,0,0,0,36,22,0,0,28,0,0,,,,,,,,,,,,,,,,,,,,,,,,,,,,,,,,,,,,,,,,,,,,,,,,,,,,,,,
6,6608,9,VKACP,-0.26,3,   boost,-0.49,101037,24,-0.17,     NaN,35,8.09,8.09,4.01,0,10.26,0,130.19,130.31,0,0,0,0,    NaN,8.08,8.13,8.12,0,0,1,1,15,-32.7595028,142.4868698,71,2025,4,23,3,32,0,0,0,0,0,1,0.6,0.8,0,0,29,26,0,29,35,22,30,0,43,0,0,0,0,30,0,0,0,42,0,0,0,0,0,36,22,0,0,28,0,0,,,,,,,,,,,,,,,,,,,,,,,,,,,,,,,,,,,,,,,,,,,,,,,,,,,,,,,
6,6608,9,VKACP,-0.25,3,   boost,0.98,101038,23.92,-0.25,     NaN,35,8.09,8.09,4.01,0,10.26,0,130.19,130.31,0,0,0,0,    NaN,8.08,8.13,8.12,0,0,1,1,15,-32.7595028,142.4868698,71,2025,4,23,3,32,0,0,0,0,0,1,0.6,0.8,0,0,29,26,0,29,35,22,30,0,43,0,0,0,0,30,0,0,0,42,0,0,0,0,0,36,22,0,0,28,0,0,,,,,,,,,,,,,,,,,,,,,,,,,,,,,,,,,,,,,,,,,,,,,,,,,,,,,,,
6,6608,9,VKACP,-0.24,3,   boost,0,101042,23.58,-0.58,     NaN,35,8.09,8.09,4.01,0,10.26,0,130.19,130.31,0,0,0,0,    NaN,8.08,8.13,8.12,0,0,1,1,15,-32.7595028,142.4868698,71,2025,4,23,3,32,0,0,0,0,0,1,0.6,0.8,0,0,29,26,0,29,35,22,30,0,43,0,0,0,0,30,0,0,0,42,0,0,0,0,0,36,22,0,0,28,0,0,,,,,,,,,,,,,,,,,,,,,,,,,,,,,,,,,,,,,,,,,,,,,,,,,,,,,,,
6,6608,9,VKACP,-0.23,3,   boost,0.49,101018,25.59,1.42,     NaN,35,8.09,8.09,4.01,0,10.26,0,130.19,130.31,0,0,0,0,    NaN,8.08,8.13,8.12,0,0,1,1,15,-32.7595028,142.4868698,71,2025,4,23,3,32,0,0,0,0,0,1,0.6,0.8,0,0,29,26,0,29,35,22,30,0,43,0,0,0,0,30,0,0,0,42,0,0,0,0,0,36,22,0,0,28,0,0,,,,,,,,,,,,,,,,,,,,,,,,,,,,,,,,,,,,,,,,,,,,,,,,,,,,,,,
6,6608,9,VKACP,-0.22,3,   boost,0.49,101040,23.75,-0.42,     NaN,35,8.09,8.09,4.01,0,10.26,0,130.19,130.31,0,0,0,0,    NaN,8.08,8.13,8.12,0,0,1,1,15,-32.7595028,142.4868698,71,2025,4,23,3,32,0,0,0,0,0,1,0.6,0.8,0,0,29,26,0,29,35,22,30,0,43,0,0,0,0,30,0,0,0,42,0,0,0,0,0,36,22,0,0,28,0,0,,,,,,,,,,,,,,,,,,,,,,,,,,,,,,,,,,,,,,,,,,,,,,,,,,,,,,,
6,6608,9,VKACP,-0.21,3,   boost,-1.96,101016,25.75,1.59,     NaN,35,8.09,8.09,4.01,0,10.26,0,130.19,130.31,0,0,0,0,    NaN,8.08,8.13,8.12,0,0,1,1,15,-32.7595028,142.4868698,71,2025,4,23,3,32,0,0,0,0,0,1,0.6,0.8,0,0,29,26,0,29,35,22,30,0,43,0,0,0,0,30,0,0,0,42,0,0,0,0,0,36,22,0,0,28,0,0,,,,,,,,,,,,,,,,,,,,,,,,,,,,,,,,,,,,,,,,,,,,,,,,,,,,,,,
6,6608,9,VKACP,-0.2,3,   boost,4.9,101030,24.59,0.42,     NaN,35,8.09,8.09,4.01,0,10.26,0,130.19,130.31,0,0,0,0,    NaN,8.08,8.13,8.12,0,0,1,1,15,-32.7595028,142.4868698,71,2025,4,23,3,32,0,0,0,0,0,1,0.6,0.8,0,0,29,26,0,29,35,22,30,0,43,0,0,0,0,30,0,0,0,42,0,0,0,0,0,36,22,0,0,28,0,0,,,,,,,,,,,,,,,,,,,,,,,,,,,,,,,,,,,,,,,,,,,,,,,,,,,,,,,
6,6608,9,VKACP,-0.19,3,   boost,-18.63,101038,23.92,-0.25,     NaN,35,8.09,8.09,4.01,0,10.26,0,130.19,130.31,0,0,0,0,    NaN,8.08,8.13,8.12,0,0,1,1,15,-32.7595028,142.4868698,71,2025,4,23,3,32,0,0,0,0,0,1,0.6,0.8,0,0,29,26,0,29,35,22,30,0,43,0,0,0,0,30,0,0,0,42,0,0,0,0,0,36,22,0,0,28,0,0,,,,,,,,,,,,,,,,,,,,,,,,,,,,,,,,,,,,,,,,,,,,,,,,,,,,,,,
6,6608,9,VKACP,-0.18,3,   boost,-6.86,101034,24.25,0.08,     NaN,35,8.09,8.09,4.01,0,10.26,0,130.19,130.31,0,0,0,0,    NaN,8.08,8.13,8.12,0,0,1,1,15,-32.7595028,142.4868698,71,2025,4,23,3,32,0,0,0,0,0,1,0.6,0.8,0,0,29,26,0,29,35,22,30,0,43,0,0,0,0,30,0,0,0,42,0,0,0,0,0,36,22,0,0,28,0,0,,,,,,,,,,,,,,,,,,,,,,,,,,,,,,,,,,,,,,,,,,,,,,,,,,,,,,,
6,6608,9,VKACP,-0.17,3,   boost,2.45,101040,23.75,-0.42,     NaN,35,8.09,8.09,4.01,0,10.26,0,130.19,130.31,0,0,0,0,    NaN,8.08,8.13,8.12,0,0,1,1,15,-32.7595028,142.4868698,71,2025,4,23,3,32,0,0,0,0,0,1,0.6,0.8,0,0,29,26,0,29,35,22,30,0,43,0,0,0,0,30,0,0,0,42,0,0,0,0,0,36,22,0,0,28,0,0,,,,,,,,,,,,,,,,,,,,,,,,,,,,,,,,,,,,,,,,,,,,,,,,,,,,,,,
6,6608,9,VKACP,-0.16,3,   boost,7.35,101033,24.34,0.17,     NaN,35,8.09,8.09,4.01,0,10.26,0,130.19,130.31,0,0,0,0,    NaN,8.08,8.13,8.12,0,0,1,1,15,-32.7595028,142.4868698,71,2025,4,23,3,32,0,0,0,0,0,1,0.6,0.8,0,0,29,26,0,29,35,22,30,0,43,0,0,0,0,30,0,0,0,42,0,0,0,0,0,36,22,0,0,28,0,0,,,,,,,,,,,,,,,,,,,,,,,,,,,,,,,,,,,,,,,,,,,,,,,,,,,,,,,
6,6608,9,VKACP,-0.15,3,   boost,10.79,101051,22.83,-1.33,     NaN,35,8.09,8.09,4.01,0,10.26,0,130.19,130.31,0,0,0,0,    NaN,8.08,8.13,8.12,0,0,1,1,15,-32.7595028,142.4868698,71,2025,4,23,3,32,0,0,0,0,0,1,0.6,0.8,0,0,29,26,0,29,35,22,30,0,43,0,0,0,0,30,0,0,0,42,0,0,0,0,0,36,22,0,0,28,0,0,,,,,,,,,,,,,,,,,,,,,,,,,,,,,,,,,,,,,,,,,,,,,,,,,,,,,,,
6,6608,9,VKACP,-0.14,3,   boost,20.1,101033,24.34,0.17,     NaN,35,8.09,8.09,4.01,0,10.26,0,130.19,130.31,0,0,0,0,    NaN,8.08,8.13,8.12,0,0,1,1,15,-32.7595028,142.4868698,71,2025,4,23,3,32,0,0,0,0,0,1,0.6,0.8,0,0,29,26,0,29,35,22,30,0,43,0,0,0,0,30,0,0,0,42,0,0,0,0,0,36,22,0,0,28,0,0,,,,,,,,,,,,,,,,,,,,,,,,,,,,,,,,,,,,,,,,,,,,,,,,,,,,,,,
6,6608,9,VKACP,-0.13,3,   boost,18.63,101036,24.08,-0.08,     NaN,35,8.09,8.09,4.01,0,10.26,0,130.19,130.31,0,0,0,0,    NaN,8.08,8.13,8.12,0,0,1,1,15,-32.7595028,142.4868698,71,2025,4,23,3,32,0,0,0,0,0,1,0.6,0.8,0,0,29,26,0,29,35,22,30,0,43,0,0,0,0,30,0,0,0,42,0,0,0,0,0,36,22,0,0,28,0,0,,,,,,,,,,,,,,,,,,,,,,,,,,,,,,,,,,,,,,,,,,,,,,,,,,,,,,,
6,6608,9,VKACP,-0.12,3,   boost,20.1,101053,22.67,-1.5,     NaN,35,8.09,8.09,4.01,0,10.26,0,130.19,130.31,0,0,0,0,    NaN,8.08,8.13,8.12,0,0,1,1,15,-32.7595028,142.4868698,71,2025,4,23,3,32,0,0,0,0,0,1,0.6,0.8,0,0,29,26,0,29,35,22,30,0,43,0,0,0,0,30,0,0,0,42,0,0,0,0,0,36,22,0,0,28,0,0,,,,,,,,,,,,,,,,,,,,,,,,,,,,,,,,,,,,,,,,,,,,,,,,,,,,,,,
6,6608,9,VKACP,-0.11,3,   boost,20.1,101064,21.75,-2.42,     NaN,35,8.09,8.09,4.01,0,10.26,0,130.19,130.31,0,0,0,0,    NaN,8.08,8.13,8.12,0,0,1,1,15,-32.7595028,142.4868698,71,2025,4,23,3,32,0,0,0,0,0,1,0.6,0.8,0,0,29,26,0,29,35,22,30,0,43,0,0,0,0,30,0,0,0,42,0,0,0,0,0,36,22,0,0,28,0,0,,,,,,,,,,,,,,,,,,,,,,,,,,,,,,,,,,,,,,,,,,,,,,,,,,,,,,,
6,6608,9,VKACP,-0.1,3,   boost,24.03,101063,21.83,-2.34,     NaN,35,8.09,8.09,4.01,0,10.26,0,130.19,130.31,0,0,0,0,    NaN,8.08,8.13,8.12,0,0,1,1,15,-32.7595028,142.4868698,71,2025,4,23,3,32,0,0,0,0,0,1,0.6,0.8,0,0,29,26,0,29,35,22,30,0,43,0,0,0,0,30,0,0,0,42,0,0,0,0,0,36,22,0,0,28,0,0,,,,,,,,,,,,,,,,,,,,,,,,,,,,,,,,,,,,,,,,,,,,,,,,,,,,,,,
6,6608,9,VKACP,-0.09,3,   boost,20.59,101009,26.34,2.17,     NaN,35,8.09,8.09,4.01,0,10.26,0,130.19,130.31,0,0,0,0,    NaN,8.08,8.13,8.12,0,0,1,1,15,-32.7595028,142.4868698,71,2025,4,23,3,32,0,0,0,0,0,1,0.6,0.8,0,0,29,26,0,29,35,22,30,0,43,0,0,0,0,30,0,0,0,42,0,0,0,0,0,36,22,0,0,28,0,0,,,,,,,,,,,,,,,,,,,,,,,,,,,,,,,,,,,,,,,,,,,,,,,,,,,,,,,
6,6608,9,VKACP,-0.08,3,   boost,23.54,101017,25.67,1.5,     NaN,35,8.09,8.09,4.01,0,10.26,0,130.19,130.31,0,0,0,0,    NaN,8.08,8.13,8.12,0,0,1,1,15,-32.7595028,142.4868698,71,2025,4,23,3,32,0,0,0,0,0,1,0.6,0.8,0,0,29,26,0,29,35,22,30,0,43,0,0,0,0,30,0,0,0,42,0,0,0,0,0,36,22,0,0,28,0,0,,,,,,,,,,,,,,,,,,,,,,,,,,,,,,,,,,,,,,,,,,,,,,,,,,,,,,,
6,6608,9,VKACP,-0.07,3,   boost,25.99,101005,26.67,2.5,     NaN,35,8.09,8.09,4.01,0,10.26,0,130.19,130.31,0,0,0,0,    NaN,8.08,8.13,8.12,0,0,1,1,15,-32.7595028,142.4868698,71,2025,4,23,3,32,0,0,0,0,0,1,0.6,0.8,0,0,29,26,0,29,35,22,30,0,43,0,0,0,0,30,0,0,0,42,0,0,0,0,0,36,22,0,0,28,0,0,,,,,,,,,,,,,,,,,,,,,,,,,,,,,,,,,,,,,,,,,,,,,,,,,,,,,,,
6,6608,9,VKACP,-0.06,3,   boost,25.5,101032,24.42,0.25,     NaN,35,8.09,8.09,4.01,0,10.26,0,130.19,130.31,0,0,0,0,    NaN,8.08,8.13,8.12,0,0,1,1,15,-32.7595028,142.4868698,71,2025,4,23,3,32,0,0,0,0,0,1,0.6,0.8,0,0,29,26,0,29,35,22,30,0,43,0,0,0,0,30,0,0,0,42,0,0,0,0,0,36,22,0,0,28,0,0,,,,,,,,,,,,,,,,,,,,,,,,,,,,,,,,,,,,,,,,,,,,,,,,,,,,,,,
6,6608,9,VKACP,-0.05,3,   boost,37.27,101026,24.92,0.75,     NaN,35,8.09,8.09,4.01,0,10.26,0,130.19,130.31,0,0,0,0,    NaN,8.08,8.13,8.12,0,0,1,1,15,-32.7595028,142.4868698,71,2025,4,23,3,32,0,0,0,0,0,1,0.6,0.8,0,0,29,26,0,29,35,22,30,0,43,0,0,0,0,30,0,0,0,42,0,0,0,0,0,36,22,0,0,28,0,0,,,,,,,,,,,,,,,,,,,,,,,,,,,,,,,,,,,,,,,,,,,,,,,,,,,,,,,
6,6608,9,VKACP,-0.04,3,   boost,35.79,101033,24.34,0.17,     NaN,35,8.09,8.09,4.01,0,10.26,0,130.19,130.31,0,0,0,0,    NaN,8.08,8.13,8.12,0,0,1,1,15,-32.7595028,142.4868698,71,2025,4,23,3,32,0,0,0,0,0,1,0.6,0.8,0,0,29,26,0,29,35,22,30,0,43,0,0,0,0,30,0,0,0,42,0,0,0,0,0,36,22,0,0,28,0,0,,,,,,,,,,,,,,,,,,,,,,,,,,,,,,,,,,,,,,,,,,,,,,,,,,,,,,,
6,6608,9,VKACP,-0.03,3,   boost,45.11,101021,25.34,1.17,     NaN,35,8.09,8.09,4.01,0,10.26,0,130.19,130.31,0,0,0,0,    NaN,8.08,8.13,8.12,0,0,1,1,15,-32.7595028,142.4868698,71,2025,4,23,3,32,0,0,0,0,0,1,0.6,0.8,0,0,29,26,0,29,35,22,30,0,43,0,0,0,0,30,0,0,0,42,0,0,0,0,0,36,22,0,0,28,0,0,,,,,,,,,,,,,,,,,,,,,,,,,,,,,,,,,,,,,,,,,,,,,,,,,,,,,,,
6,6608,9,VKACP,-0.02,3,   boost,39.23,101010,26.25,2.09,     NaN,35,8.09,8.09,4.01,0,10.26,0,130.19,130.31,0,0,0,0,    NaN,8.08,8.13,8.12,0,0,1,1,15,-32.7595028,142.4868698,71,2025,4,23,3,32,0,0,0,0,0,1,0.6,0.8,0,0,29,26,0,29,35,22,30,0,43,0,0,0,0,30,0,0,0,42,0,0,0,0,0,36,22,0,0,28,0,0,,,,,,,,,,,,,,,,,,,,,,,,,,,,,,,,,,,,,,,,,,,,,,,,,,,,,,,
6,6608,9,VKACP,-0.01,3,   boost,44.13,101019,25.5,1.34,     NaN,35,8.09,8.09,4.01,0,10.26,0,130.19,130.31,0,0,0,0,    NaN,8.08,8.13,8.12,0,0,1,1,15,-32.7595028,142.4868698,71,2025,4,23,3,32,0,0,0,0,0,1,0.6,0.8,0,0,29,26,0,29,35,22,30,0,43,0,0,0,0,30,0,0,0,42,0,0,0,0,0,36,22,0,0,28,0,0,,,,,,,,,,,,,,,,,,,,,,,,,,,,,,,,,,,,,,,,,,,,,,,,,,,,,,,
6,6608,9,VKACP,0,3,   boost,60.31,101024,25.09,0.92,     NaN,35,8.09,8.09,4.01,0,10.26,0,130.19,130.31,0,0,0,0,    NaN,8.08,8.13,8.12,0,0,1,1,15,-32.7595028,142.4868698,71,2025,4,23,3,32,0,0,0,0,0,1,0.6,0.8,0,0,29,26,0,29,35,22,30,0,43,0,0,0,0,30,0,0,0,42,0,0,0,0,0,36,22,0,0,28,0,0,,,,,,,,,,,,,,,,,,,,,,,,,,,,,,,,,,,,,,,,,,,,,,,,,,,,,,,
6,6608,9,VKACP,0,3,   boost,60.31,101024,25.09,0.92,     NaN,35,8.09,8.09,4.01,0,10.26,0,130.19,130.31,0,0,0,0,    NaN,8.08,8.13,8.12,0,0,1,1,15,-32.7595028,142.4868698,71,2025,4,23,3,32,0,0,0,0,0,1,0.6,0.8,0,0,29,26,0,29,35,22,30,0,43,0,0,0,0,30,0,0,0,42,0,0,0,0,0,36,22,0,0,28,0,0,,,,,,,,,,,,,,,,,,,,,,,,,,,,,,,,,,,,,,,,,,,,,,,,,,,,,,,
6,6608,9,VKACP,0,3,   boost,60.31,101024,25.09,0.92,     NaN,35,8.09,8.09,4.01,0,10.26,0,130.19,130.31,0,0,0,0,    NaN,8.08,8.13,8.12,0,0,1,1,15,-32.7595028,142.4868698,71,2025,4,23,3,32,0,0,0,0,0,1,0.6,0.8,0,0,29,26,0,29,35,22,30,0,43,0,0,0,0,30,0,0,0,42,0,0,0,0,0,36,22,0,0,28,0,0,,,,,,,,,,,,,,,,,,,,,,,,,,,,,,,,,,,,,,,,,,,,,,,,,,,,,,,
6,6608,9,VKACP,0,3,   boost,60.31,101024,25.09,0.92,     NaN,35,8.09,8.09,4.01,0,10.26,0,130.19,130.31,0,0,0,0,    NaN,8.08,8.13,8.12,0,0,1,1,15,-32.7595028,142.4868698,71,2025,4,23,3,32,0,0,0,0,0,1,0.6,0.8,0,0,29,26,0,29,35,22,30,0,43,0,0,0,0,30,0,0,0,42,0,0,0,0,0,36,22,0,0,28,0,0,,,,,,,,,,,,,,,,,,,,,,,,,,,,,,,,,,,,,,,,,,,,,,,,,,,,,,,
6,6608,9,VKACP,0,3,   boost,60.31,101024,25.09,0.92,     NaN,35,8.09,8.09,4.01,0,10.26,0,130.19,130.31,0,0,0,0,    NaN,8.08,8.13,8.12,0,0,1,1,15,-32.7595028,142.4868698,71,2025,4,23,3,32,0,0,0,0,0,1,0.6,0.8,0,0,29,26,0,29,35,22,30,0,43,0,0,0,0,30,0,0,0,42,0,0,0,0,0,36,22,0,0,28,0,0,,,,,,,,,,,,,,,,,,,,,,,,,,,,,,,,,,,,,,,,,,,,,,,,,,,,,,,
6,6608,9,VKACP,0,3,   boost,60.31,101024,25.09,0.92,     NaN,35,8.09,8.09,4.01,0,10.26,0,130.19,130.31,0,0,0,0,    NaN,8.08,8.13,8.12,0,0,1,1,15,-32.7595028,142.4868698,71,2025,4,23,3,32,0,0,0,0,0,1,0.6,0.8,0,0,29,26,0,29,35,22,30,0,43,0,0,0,0,30,0,0,0,42,0,0,0,0,0,36,22,0,0,28,0,0,,,,,,,,,,,,,,,,,,,,,,,,,,,,,,,,,,,,,,,,,,,,,,,,,,,,,,,
6,6608,9,VKACP,0,3,   boost,60.31,101024,25.09,0.92,     NaN,35,8.09,8.09,4.01,0,10.26,0,130.19,130.31,0,0,0,0,    NaN,8.08,8.13,8.12,0,0,1,1,15,-32.7595028,142.4868698,71,2025,4,23,3,32,0,0,0,0,0,1,0.6,0.8,0,0,29,26,0,29,35,22,30,0,43,0,0,0,0,30,0,0,0,42,0,0,0,0,0,36,22,0,0,28,0,0,,,,,,,,,,,,,,,,,,,,,,,,,,,,,,,,,,,,,,,,,,,,,,,,,,,,,,,
6,6608,9,VKACP,0,3,   boost,60.31,101024,25.09,0.92,     NaN,35,8.09,8.09,4.01,0,10.26,0,130.19,130.31,0,0,0,0,    NaN,8.08,8.13,8.12,0,0,1,1,15,-32.7595028,142.4868698,71,2025,4,23,3,32,0,0,0,0,0,1,0.6,0.8,0,0,29,26,0,29,35,22,30,0,43,0,0,0,0,30,0,0,0,42,0,0,0,0,0,36,22,0,0,28,0,0,,,,,,,,,,,,,,,,,,,,,,,,,,,,,,,,,,,,,,,,,,,,,,,,,,,,,,,
6,6608,9,VKACP,0,3,   boost,60.31,101024,25.09,0.92,     NaN,35,8.09,8.09,4.01,0,10.26,0,130.19,130.31,0,0,0,0,    NaN,8.08,8.13,8.12,0,0,1,1,15,-32.7595028,142.4868698,71,2025,4,23,3,32,0,0,0,0,0,1,0.6,0.8,0,0,29,26,0,29,35,22,30,0,43,0,0,0,0,30,0,0,0,42,0,0,0,0,0,36,22,0,0,28,0,0,,,,,,,,,,,,,,,,,,,,,,,,,,,,,,,,,,,,,,,,,,,,,,,,,,,,,,,
6,6608,9,VKACP,0,3,   boost,60.31,101024,25.09,0.92,     NaN,35,8.09,8.09,4.01,0,10.26,0,130.19,130.31,0,0,0,0,    NaN,8.08,8.13,8.12,0,0,1,1,15,-32.7595028,142.4868698,71,2025,4,23,3,32,0,0,0,0,0,1,0.6,0.8,0,0,29,26,0,29,35,22,30,0,43,0,0,0,0,30,0,0,0,42,0,0,0,0,0,36,22,0,0,28,0,0,,,,,,,,,,,,,,,,,,,,,,,,,,,,,,,,,,,,,,,,,,,,,,,,,,,,,,,
6,6608,9,VKACP,0,3,   boost,60.31,101024,25.09,0.92,     NaN,35,8.09,8.09,4.01,0,10.26,0,130.19,130.31,0,0,0,0,    NaN,8.08,8.13,8.12,0,0,1,1,15,-32.7595028,142.4868698,71,2025,4,23,3,32,0,0,0,0,0,1,0.6,0.8,0,0,29,26,0,29,35,22,30,0,43,0,0,0,0,30,0,0,0,42,0,0,0,0,0,36,22,0,0,28,0,0,,,,,,,,,,,,,,,,,,,,,,,,,,,,,,,,,,,,,,,,,,,,,,,,,,,,,,,
6,6608,9,VKACP,0,3,   boost,60.31,101024,25.09,0.92,     NaN,35,8.09,8.09,4.01,0,10.26,0,130.19,130.31,0,0,0,0,    NaN,8.08,8.13,8.12,0,0,1,1,15,-32.7595028,142.4868698,71,2025,4,23,3,32,0,0,0,0,0,1,0.6,0.8,0,0,29,26,0,29,35,22,30,0,43,0,0,0,0,30,0,0,0,42,0,0,0,0,0,36,22,0,0,28,0,0,,,,,,,,,,,,,,,,,,,,,,,,,,,,,,,,,,,,,,,,,,,,,,,,,,,,,,,
6,6608,9,VKACP,0,3,   boost,60.31,101024,25.09,0.92,     NaN,35,8.09,8.09,4.01,0,10.26,0,130.19,130.31,0,0,0,0,    NaN,8.08,8.13,8.12,0,0,1,1,15,-32.7595028,142.4868698,71,2025,4,23,3,32,0,0,0,0,0,1,0.6,0.8,0,0,29,26,0,29,35,22,30,0,43,0,0,0,0,30,0,0,0,42,0,0,0,0,0,36,22,0,0,28,0,0,,,,,,,,,,,,,,,,,,,,,,,,,,,,,,,,,,,,,,,,,,,,,,,,,,,,,,,
6,6608,9,VKACP,0,3,   boost,60.31,101024,25.09,0.92,     NaN,35,8.09,8.09,4.01,0,10.26,0,130.19,130.31,0,0,0,0,    NaN,8.08,8.13,8.12,0,0,1,1,15,-32.7595028,142.4868698,71,2025,4,23,3,32,0,0,0,0,0,1,0.6,0.8,0,0,29,26,0,29,35,22,30,0,43,0,0,0,0,30,0,0,0,42,0,0,0,0,0,36,22,0,0,28,0,0,,,,,,,,,,,,,,,,,,,,,,,,,,,,,,,,,,,,,,,,,,,,,,,,,,,,,,,
6,6608,9,VKACP,0,3,   boost,60.31,101024,25.09,0.92,     NaN,35,8.09,8.09,4.01,0,10.26,0,130.19,130.31,0,0,0,0,    NaN,8.08,8.13,8.12,0,0,1,1,15,-32.7595028,142.4868698,71,2025,4,23,3,32,0,0,0,0,0,1,0.6,0.8,0,0,29,26,0,29,35,22,30,0,43,0,0,0,0,30,0,0,0,42,0,0,0,0,0,36,22,0,0,28,0,0,,,,,,,,,,,,,,,,,,,,,,,,,,,,,,,,,,,,,,,,,,,,,,,,,,,,,,,
6,6608,9,VKACP,0,3,   boost,60.31,101024,25.09,0.92,     NaN,35,8.09,8.09,4.01,0,10.26,0,130.19,130.31,0,0,0,0,    NaN,8.08,8.13,8.12,0,0,1,1,15,-32.7595028,142.4868698,71,2025,4,23,3,32,0,0,0,0,0,1,0.6,0.8,0,0,29,26,0,29,35,22,30,0,43,0,0,0,0,30,0,0,0,42,0,0,0,0,0,36,22,0,0,28,0,0,,,,,,,,,,,,,,,,,,,,,,,,,,,,,,,,,,,,,,,,,,,,,,,,,,,,,,,
6,6608,9,VKACP,0,3,   boost,60.31,101024,25.09,0.92,     NaN,35,8.09,8.09,4.01,0,10.26,0,130.19,130.31,0,0,0,0,    NaN,8.08,8.13,8.12,0,0,1,1,15,-32.7595028,142.4868698,71,2025,4,23,3,32,0,0,0,0,0,1,0.6,0.8,0,0,29,26,0,29,35,22,30,0,43,0,0,0,0,30,0,0,0,42,0,0,0,0,0,36,22,0,0,28,0,0,,,,,,,,,,,,,,,,,,,,,,,,,,,,,,,,,,,,,,,,,,,,,,,,,,,,,,,
6,6608,9,VKACP,0,3,   boost,60.31,101024,25.09,0.92,     NaN,35,8.09,8.09,4.01,0,10.26,0,130.19,130.31,0,0,0,0,    NaN,8.08,8.13,8.12,0,0,1,1,15,-32.7595028,142.4868698,71,2025,4,23,3,32,0,0,0,0,0,1,0.6,0.8,0,0,29,26,0,29,35,22,30,0,43,0,0,0,0,30,0,0,0,42,0,0,0,0,0,36,22,0,0,28,0,0,,,,,,,,,,,,,,,,,,,,,,,,,,,,,,,,,,,,,,,,,,,,,,,,,,,,,,,
6,6608,9,VKACP,0,3,   boost,60.31,101024,25.09,0.92,     NaN,35,8.09,8.09,4.01,0,10.26,0,130.19,130.31,0,0,0,0,    NaN,8.08,8.13,8.12,0,0,1,1,15,-32.7595028,142.4868698,71,2025,4,23,3,32,0,0,0,0,0,1,0.6,0.8,0,0,29,26,0,29,35,22,30,0,43,0,0,0,0,30,0,0,0,42,0,0,0,0,0,36,22,0,0,28,0,0,,,,,,,,,,,,,,,,,,,,,,,,,,,,,,,,,,,,,,,,,,,,,,,,,,,,,,,
6,6608,9,VKACP,0,3,   boost,60.31,101024,25.09,0.92,     NaN,35,8.09,8.09,4.01,0,10.26,0,130.19,130.31,0,0,0,0,    NaN,8.08,8.13,8.12,0,0,1,1,15,-32.7595028,142.4868698,71,2025,4,23,3,32,0,0,0,0,0,1,0.6,0.8,0,0,29,26,0,29,35,22,30,0,43,0,0,0,0,30,0,0,0,42,0,0,0,0,0,36,22,0,0,28,0,0,,,,,,,,,,,,,,,,,,,,,,,,,,,,,,,,,,,,,,,,,,,,,,,,,,,,,,,
6,6608,9,VKACP,0,3,   boost,60.31,101024,25.09,0.92,     NaN,35,8.09,8.09,4.01,0,10.26,0,130.19,130.31,0,0,0,0,    NaN,8.08,8.13,8.12,0,0,1,1,15,-32.7595028,142.4868698,71,2025,4,23,3,32,0,0,0,0,0,1,0.6,0.8,0,0,29,26,0,29,35,22,30,0,43,0,0,0,0,30,0,0,0,42,0,0,0,0,0,36,22,0,0,28,0,0,,,,,,,,,,,,,,,,,,,,,,,,,,,,,,,,,,,,,,,,,,,,,,,,,,,,,,,
6,6608,9,VKACP,0,3,   boost,60.31,101024,25.09,0.92,     NaN,35,8.09,8.09,4.01,0,10.26,0,130.19,130.31,0,0,0,0,    NaN,8.08,8.13,8.12,0,0,1,1,15,-32.7595028,142.4868698,71,2025,4,23,3,32,0,0,0,0,0,1,0.6,0.8,0,0,29,26,0,29,35,22,30,0,43,0,0,0,0,30,0,0,0,42,0,0,0,0,0,36,22,0,0,28,0,0,,,,,,,,,,,,,,,,,,,,,,,,,,,,,,,,,,,,,,,,,,,,,,,,,,,,,,,
6,6608,9,VKACP,0,3,   boost,60.31,101024,25.09,0.92,     NaN,35,8.09,8.09,4.01,0,10.26,0,130.19,130.31,0,0,0,0,    NaN,8.08,8.13,8.12,0,0,1,1,15,-32.7595028,142.4868698,71,2025,4,23,3,32,0,0,0,0,0,1,0.6,0.8,0,0,29,26,0,29,35,22,30,0,43,0,0,0,0,30,0,0,0,42,0,0,0,0,0,36,22,0,0,28,0,0,,,,,,,,,,,,,,,,,,,,,,,,,,,,,,,,,,,,,,,,,,,,,,,,,,,,,,,
6,6608,9,VKACP,0,3,   boost,60.31,101024,25.09,0.92,     NaN,35,8.09,8.09,4.01,0,10.26,0,130.19,130.31,0,0,0,0,    NaN,8.08,8.13,8.12,0,0,1,1,15,-32.7595028,142.4868698,71,2025,4,23,3,32,0,0,0,0,0,1,0.6,0.8,0,0,29,26,0,29,35,22,30,0,43,0,0,0,0,30,0,0,0,42,0,0,0,0,0,36,22,0,0,28,0,0,,,,,,,,,,,,,,,,,,,,,,,,,,,,,,,,,,,,,,,,,,,,,,,,,,,,,,,
6,6608,9,VKACP,0,3,   boost,60.31,101024,25.09,0.92,     NaN,35,8.09,8.09,4.01,0,10.26,0,130.19,130.31,0,0,0,0,    NaN,8.08,8.13,8.12,0,0,1,1,15,-32.7595028,142.4868698,71,2025,4,23,3,32,0,0,0,0,0,1,0.6,0.8,0,0,29,26,0,29,35,22,30,0,43,0,0,0,0,30,0,0,0,42,0,0,0,0,0,36,22,0,0,28,0,0,,,,,,,,,,,,,,,,,,,,,,,,,,,,,,,,,,,,,,,,,,,,,,,,,,,,,,,
6,6608,9,VKACP,0,3,   boost,60.31,101024,25.09,0.92,     NaN,35,8.09,8.09,4.01,0,10.26,0,130.19,130.31,0,0,0,0,    NaN,8.08,8.13,8.12,0,0,1,1,15,-32.7595028,142.4868698,71,2025,4,23,3,32,0,0,0,0,0,1,0.6,0.8,0,0,29,26,0,29,35,22,30,0,43,0,0,0,0,30,0,0,0,42,0,0,0,0,0,36,22,0,0,28,0,0,,,,,,,,,,,,,,,,,,,,,,,,,,,,,,,,,,,,,,,,,,,,,,,,,,,,,,,
6,6608,9,VKACP,0,3,   boost,60.31,101024,25.09,0.92,     NaN,35,8.09,8.09,4.01,0,10.26,0,130.19,130.31,0,0,0,0,    NaN,8.08,8.13,8.12,0,0,1,1,15,-32.7595028,142.4868698,71,2025,4,23,3,32,0,0,0,0,0,1,0.6,0.8,0,0,29,26,0,29,35,22,30,0,43,0,0,0,0,30,0,0,0,42,0,0,0,0,0,36,22,0,0,28,0,0,,,,,,,,,,,,,,,,,,,,,,,,,,,,,,,,,,,,,,,,,,,,,,,,,,,,,,,
6,6608,9,VKACP,0,3,   boost,60.31,101024,25.09,0.92,     NaN,35,8.09,8.09,4.01,0,10.26,0,130.19,130.31,0,0,0,0,    NaN,8.08,8.13,8.12,0,0,1,1,15,-32.7595028,142.4868698,71,2025,4,23,3,32,0,0,0,0,0,1,0.6,0.8,0,0,29,26,0,29,35,22,30,0,43,0,0,0,0,30,0,0,0,42,0,0,0,0,0,36,22,0,0,28,0,0,,,,,,,,,,,,,,,,,,,,,,,,,,,,,,,,,,,,,,,,,,,,,,,,,,,,,,,
6,6608,9,VKACP,0,3,   boost,60.31,101024,25.09,0.92,     NaN,35,8.09,8.09,4.01,0,10.26,0,130.19,130.31,0,0,0,0,    NaN,8.08,8.13,8.12,0,0,1,1,15,-32.7595028,142.4868698,71,2025,4,23,3,32,0,0,0,0,0,1,0.6,0.8,0,0,29,26,0,29,35,22,30,0,43,0,0,0,0,30,0,0,0,42,0,0,0,0,0,36,22,0,0,28,0,0,,,,,,,,,,,,,,,,,,,,,,,,,,,,,,,,,,,,,,,,,,,,,,,,,,,,,,,
6,6608,9,VKACP,0,3,   boost,60.31,101024,25.09,0.92,     NaN,35,8.09,8.09,4.01,0,10.26,0,130.19,130.31,0,0,0,0,    NaN,8.08,8.13,8.12,0,0,1,1,15,-32.7595028,142.4868698,71,2025,4,23,3,32,0,0,0,0,0,1,0.6,0.8,0,0,29,26,0,29,35,22,30,0,43,0,0,0,0,30,0,0,0,42,0,0,0,0,0,36,22,0,0,28,0,0,,,,,,,,,,,,,,,,,,,,,,,,,,,,,,,,,,,,,,,,,,,,,,,,,,,,,,,
6,6608,9,VKACP,0,3,   boost,60.31,101024,25.09,0.92,     NaN,35,8.09,8.09,4.01,0,10.26,0,130.19,130.31,0,0,0,0,    NaN,8.08,8.13,8.12,0,0,1,1,15,-32.7595028,142.4868698,71,2025,4,23,3,32,0,0,0,0,0,1,0.6,0.8,0,0,29,26,0,29,35,22,30,0,43,0,0,0,0,30,0,0,0,42,0,0,0,0,0,36,22,0,0,28,0,0,,,,,,,,,,,,,,,,,,,,,,,,,,,,,,,,,,,,,,,,,,,,,,,,,,,,,,,
6,6608,9,VKACP,0,3,   boost,60.31,101024,25.09,0.92,     NaN,35,8.09,8.09,4.01,0,10.26,0,130.19,130.31,0,0,0,0,    NaN,8.08,8.13,8.12,0,0,1,1,15,-32.7595028,142.4868698,71,2025,4,23,3,32,0,0,0,0,0,1,0.6,0.8,0,0,29,26,0,29,35,22,30,0,43,0,0,0,0,30,0,0,0,42,0,0,0,0,0,36,22,0,0,28,0,0,,,,,,,,,,,,,,,,,,,,,,,,,,,,,,,,,,,,,,,,,,,,,,,,,,,,,,,
6,6608,9,VKACP,0,3,   boost,60.31,101024,25.09,0.92,     NaN,35,8.09,8.09,4.01,0,10.26,0,130.19,130.31,0,0,0,0,    NaN,8.08,8.13,8.12,0,0,1,1,15,-32.7595028,142.4868698,71,2025,4,23,3,32,0,0,0,0,0,1,0.6,0.8,0,0,29,26,0,29,35,22,30,0,43,0,0,0,0,30,0,0,0,42,0,0,0,0,0,36,22,0,0,28,0,0,,,,,,,,,,,,,,,,,,,,,,,,,,,,,,,,,,,,,,,,,,,,,,,,,,,,,,,
6,6608,9,VKACP,0,3,   boost,60.31,101024,25.09,0.92,     NaN,35,8.09,8.09,4.01,0,10.26,0,130.19,130.31,0,0,0,0,    NaN,8.08,8.13,8.12,0,0,1,1,15,-32.7595028,142.4868698,71,2025,4,23,3,32,0,0,0,0,0,1,0.6,0.8,0,0,29,26,0,29,35,22,30,0,43,0,0,0,0,30,0,0,0,42,0,0,0,0,0,36,22,0,0,28,0,0,,,,,,,,,,,,,,,,,,,,,,,,,,,,,,,,,,,,,,,,,,,,,,,,,,,,,,,
6,6608,9,VKACP,0,3,   boost,60.31,101024,25.09,0.92,     NaN,35,8.09,8.09,4.01,0,10.26,0,130.19,130.31,0,0,0,0,    NaN,8.08,8.13,8.12,0,0,1,1,15,-32.7595028,142.4868698,71,2025,4,23,3,32,0,0,0,0,0,1,0.6,0.8,0,0,29,26,0,29,35,22,30,0,43,0,0,0,0,30,0,0,0,42,0,0,0,0,0,36,22,0,0,28,0,0,,,,,,,,,,,,,,,,,,,,,,,,,,,,,,,,,,,,,,,,,,,,,,,,,,,,,,,
6,6608,9,VKACP,0.01,3,   boost,40.7,101014,25.92,1.75,     NaN,35,8.09,8.09,4.01,0,10.26,0,130.19,130.31,0,0,0,0,    NaN,8.08,8.13,8.12,0,0,1,1,15,-32.7595028,142.4868698,71,2025,4,23,3,32,0,0,0,0,0,1,0.6,0.8,0,0,29,26,0,29,35,22,30,0,43,0,0,0,0,30,0,0,0,42,0,0,0,0,0,36,22,0,0,28,0,0,,,,,,,,,,,,,,,,,,,,,,,,,,,,,,,,,,,,,,,,,,,,,,,,,,,,,,,
6,6608,9,VKACP,0.01,3,   boost,40.7,101014,25.92,1.75,     NaN,35,8.09,8.09,4.01,0,10.26,0,130.19,130.31,0,0,0,0,    NaN,8.08,8.13,8.12,0,0,1,1,15,-32.7595028,142.4868698,71,2025,4,23,3,32,0,0,0,0,0,1,0.6,0.8,0,0,29,26,0,29,35,22,30,0,43,0,0,0,0,30,0,0,0,42,0,0,0,0,0,36,22,0,0,28,0,0,,,,,,,,,,,,,,,,,,,,,,,,,,,,,,,,,,,,,,,,,,,,,,,,,,,,,,,
6,6608,9,VKACP,0.02,3,   boost,59.82,101021,25.34,1.17,     NaN,35,8.09,8.08,3.98,0,10.26,0,130.19,130.31,0,0,0,0,    NaN,8.05,8.12,8.1,0,0,1,1,15,-32.7595028,142.4868698,71,2025,4,23,3,32,0,0,0,0,0,1,0.6,0.8,0,0,29,26,0,29,35,22,30,0,43,0,0,0,0,30,0,0,0,42,0,0,0,0,0,36,22,0,0,28,0,0,,,,,,,,,,,,,,,,,,,,,,,,,,,,,,,,,,,,,,,,,,,,,,,,,,,,,,,
6,6608,9,VKACP,0.02,3,   boost,59.82,101021,25.34,1.17,     NaN,35,8.09,8.08,3.98,0,10.26,0,130.19,130.31,0,0,0,0,    NaN,8.05,8.12,8.1,0,0,1,1,15,-32.7595028,142.4868698,71,2025,4,23,3,32,0,0,0,0,0,1,0.6,0.8,0,0,29,26,0,29,35,22,30,0,43,0,0,0,0,30,0,0,0,42,0,0,0,0,0,36,22,0,0,28,0,0,,,,,,,,,,,,,,,,,,,,,,,,,,,,,,,,,,,,,,,,,,,,,,,,,,,,,,,
6,6608,9,VKACP,0.03,3,   boost,51.98,101039,23.83,-0.33,     NaN,35,8.09,8.08,3.98,0,10.23,0,130.13,130.25,0,0,0,0,    NaN,8.05,8.12,8.1,0,0,1,1,15,-32.7595028,142.4868698,71,2025,4,23,3,32,0,0,0,0,0,1,0.6,0.8,0,0,29,26,0,29,35,22,30,0,43,0,0,0,0,30,0,0,0,42,0,0,0,0,0,36,22,0,0,28,0,0,,,,,,,,,,,,,,,,,,,,,,,,,,,,,,,,,,,,,,,,,,,,,,,,,,,,,,,
6,6608,9,VKACP,0.04,3,   boost,40.21,101025,25,0.83,     NaN,35,8.09,8.08,3.98,0,10.23,0,130.13,130.25,0,0,0,0,    NaN,8.05,8.12,8.1,0,0,1,1,15,-32.7595028,142.4868698,71,2025,4,23,3,32,0,0,0,0,0,1,0.6,0.8,0,0,29,26,0,29,35,22,30,0,43,0,0,0,0,30,0,0,0,42,0,0,0,0,0,36,22,0,0,28,0,0,,,,,,,,,,,,,,,,,,,,,,,,,,,,,,,,,,,,,,,,,,,,,,,,,,,,,,,
6,6608,9,VKACP,0.05,3,   boost,50.99,101010,26.25,2.09,     NaN,35,8.09,8.08,3.98,0,10.23,0,130.13,130.25,0,0,0,0,    NaN,8.05,8.12,8.1,0,0,1,1,15,-32.7595028,142.4868698,71,2025,4,23,3,32,0,0,0,0,0,1,0.6,0.8,0,0,29,26,0,29,35,22,30,0,43,0,0,0,0,30,0,0,0,42,0,0,0,0,0,36,22,0,0,28,0,0,,,,,,,,,,,,,,,,,,,,,,,,,,,,,,,,,,,,,,,,,,,,,,,,,,,,,,,
6,6608,9,VKACP,0.06,3,   boost,57.37,101024,25.09,0.92,     NaN,35,8.09,8.08,3.98,0,10.23,0,130.13,130.25,0,0,0,0,    NaN,8.05,8.12,8.1,0,0,1,1,15,-32.7595028,142.4868698,71,2025,4,23,3,32,0,0,0,0,0,1,0.6,0.8,0,0,29,26,0,29,35,22,30,0,43,0,0,0,0,30,0,0,0,42,0,0,0,0,0,36,22,0,0,28,0,0,,,,,,,,,,,,,,,,,,,,,,,,,,,,,,,,,,,,,,,,,,,,,,,,,,,,,,,
6,6608,9,VKACP,0.07,3,   boost,57.37,101016,25.75,1.59,     NaN,35,8.09,8.08,3.98,0,10.23,0,130.13,130.25,0,0,0,0,    NaN,8.05,8.12,8.1,0,0,1,1,15,-32.7595028,142.4868698,71,2025,4,23,3,32,0,0,0,0,0,1,0.6,0.8,0,0,29,26,0,29,35,22,30,0,43,0,0,0,0,30,0,0,0,42,0,0,0,0,0,36,22,0,0,28,0,0,,,,,,,,,,,,,,,,,,,,,,,,,,,,,,,,,,,,,,,,,,,,,,,,,,,,,,,
6,6608,9,VKACP,0.08,3,   boost,66.69,101019,25.5,1.34,     NaN,35,8.09,8.08,3.98,0,10.23,0,130.13,130.25,0,0,0,0,    NaN,8.05,8.12,8.1,0,0,1,1,15,-32.7595028,142.4868698,71,2025,4,23,3,32,0,0,0,0,0,1,0.6,0.8,0,0,29,26,0,29,35,22,30,0,43,0,0,0,0,30,0,0,0,42,0,0,0,0,0,36,22,0,0,28,0,0,,,,,,,,,,,,,,,,,,,,,,,,,,,,,,,,,,,,,,,,,,,,,,,,,,,,,,,
6,6608,9,VKACP,0.09,3,   boost,59.33,101019,25.5,1.34,     NaN,35,8.09,8.08,3.98,0,10.23,0,130.13,130.25,0,0,0,0,    NaN,8.05,8.12,8.1,0,0,1,1,15,-32.7595028,142.4868698,71,2025,4,23,3,32,0,0,0,0,0,1,0.6,0.8,0,0,29,26,0,29,35,22,30,0,43,0,0,0,0,30,0,0,0,42,0,0,0,0,0,36,22,0,0,28,0,0,,,,,,,,,,,,,,,,,,,,,,,,,,,,,,,,,,,,,,,,,,,,,,,,,,,,,,,
6,6608,9,VKACP,0.1,3,   boost,70.12,101013,26,1.84,     NaN,35,8.09,8.08,3.98,0,10.23,0,130.13,130.25,0,0,0,0,    NaN,8.05,8.12,8.1,0,0,1,1,15,-32.7595028,142.4868698,71,2025,4,23,3,32,0,0,0,0,0,1,0.6,0.8,0,0,29,26,0,29,35,22,30,0,43,0,0,0,0,30,0,0,0,42,0,0,0,0,0,36,22,0,0,28,0,0,,,,,,,,,,,,,,,,,,,,,,,,,,,,,,,,,,,,,,,,,,,,,,,,,,,,,,,
6,6608,9,VKACP,0.11,3,   boost,41.19,101018,25.59,1.42,     NaN,35,8.09,8.08,3.98,0,10.23,0,130.13,130.25,0,0,0,0,    NaN,8.05,8.12,8.1,0,0,1,1,15,-32.7595028,142.4868698,71,2025,4,23,3,32,0,0,0,0,0,1,0.6,0.8,0,0,29,26,0,29,35,22,30,0,43,0,0,0,0,30,0,0,0,42,0,0,0,0,0,36,22,0,0,28,0,0,,,,,,,,,,,,,,,,,,,,,,,,,,,,,,,,,,,,,,,,,,,,,,,,,,,,,,,
6,6608,9,VKACP,0.12,3,   boost,95.61,101009,26.34,2.17,     NaN,35,8.09,8.08,3.98,0,10.23,0,130.13,130.25,0,0,0,0,    NaN,8.05,8.12,8.1,0,0,1,1,15,-32.7595028,142.4868698,71,2025,4,23,3,32,0,0,0,0,0,1,0.6,0.8,0,0,29,26,0,29,35,22,30,0,43,0,0,0,0,30,0,0,0,42,0,0,0,0,0,36,22,0,0,28,0,0,,,,,,,,,,,,,,,,,,,,,,,,,,,,,,,,,,,,,,,,,,,,,,,,,,,,,,,
6,6608,9,VKACP,0.13,3,   boost,97.58,101004,26.76,2.59,     NaN,35,8.09,8.08,3.98,0,10.23,0,130.13,130.25,0,0,0,0,    NaN,8.05,8.12,8.1,0,0,1,1,15,-32.7595028,142.4868698,71,2025,4,23,3,32,0,0,0,0,0,1,0.6,0.8,0,0,29,26,0,29,35,22,30,0,43,0,0,0,0,30,0,0,0,42,0,0,0,0,0,36,22,0,0,28,0,0,,,,,,,,,,,,,,,,,,,,,,,,,,,,,,,,,,,,,,,,,,,,,,,,,,,,,,,
6,6608,9,VKACP,0.14,3,   boost,27.46,101002,26.92,2.75,     NaN,35,8.09,8.08,3.98,0,10.23,0,130.13,130.25,0,0,0,0,    NaN,8.05,8.12,8.1,0,0,1,1,15,-32.7595028,142.4868698,71,2025,4,23,3,32,0,0,0,0,0,1,0.6,0.8,0,0,29,26,0,29,35,22,30,0,43,0,0,0,0,30,0,0,0,42,0,0,0,0,0,36,22,0,0,28,0,0,,,,,,,,,,,,,,,,,,,,,,,,,,,,,,,,,,,,,,,,,,,,,,,,,,,,,,,
6,6608,9,VKACP,0.15,3,   boost,88.26,101001,27.01,2.84,     NaN,35,8.09,8.08,3.98,0,10.23,0,130.13,130.25,0,0,0,0,    NaN,8.05,8.12,8.1,0,0,1,1,15,-32.7595028,142.4868698,71,2025,4,23,3,32,0,0,0,0,0,1,0.6,0.8,0,0,29,26,0,29,35,22,30,0,43,0,0,0,0,30,0,0,0,42,0,0,0,0,0,36,22,0,0,28,0,0,,,,,,,,,,,,,,,,,,,,,,,,,,,,,,,,,,,,,,,,,,,,,,,,,,,,,,,
6,6608,9,VKACP,0.16,3,   boost,71.59,101006,26.59,2.42,     NaN,35,8.09,8.08,3.98,0,10.23,0,130.13,130.25,0,0,0,0,    NaN,8.05,8.12,8.1,0,0,1,1,15,-32.7595028,142.4868698,71,2025,4,23,3,32,0,0,0,0,0,1,0.6,0.8,0,0,29,26,0,29,35,22,30,0,43,0,0,0,0,30,0,0,0,42,0,0,0,0,0,36,22,0,0,28,0,0,,,,,,,,,,,,,,,,,,,,,,,,,,,,,,,,,,,,,,,,,,,,,,,,,,,,,,,
6,6608,9,VKACP,0.17,3,   boost,54.43,100990,27.92,3.76,     NaN,35,8.09,8.08,3.98,0,10.23,0,130.13,130.25,0,0,0,0,    NaN,8.05,8.12,8.1,0,0,1,1,15,-32.7595028,142.4868698,71,2025,4,23,3,32,0,0,0,0,0,1,0.6,0.8,0,0,29,26,0,29,35,22,30,0,43,0,0,0,0,30,0,0,0,42,0,0,0,0,0,36,22,0,0,28,0,0,,,,,,,,,,,,,,,,,,,,,,,,,,,,,,,,,,,,,,,,,,,,,,,,,,,,,,,
6,6608,9,VKACP,0.18,3,   boost,85.32,101020,25.42,1.25,     NaN,35,8.09,8.08,3.98,0,10.23,0,130.13,130.25,0,0,0,0,    NaN,8.05,8.12,8.1,0,0,1,1,15,-32.7595028,142.4868698,71,2025,4,23,3,32,0,0,0,0,0,1,0.6,0.8,0,0,29,26,0,29,35,22,30,0,43,0,0,0,0,30,0,0,0,42,0,0,0,0,0,36,22,0,0,28,0,0,,,,,,,,,,,,,,,,,,,,,,,,,,,,,,,,,,,,,,,,,,,,,,,,,,,,,,,
6,6608,9,VKACP,0.19,3,   boost,67.67,100993,27.67,3.5,     NaN,35,8.09,8.08,3.98,0,10.23,0,130.13,130.25,0,0,0,0,    NaN,8.05,8.12,8.1,0,0,1,1,15,-32.7595028,142.4868698,71,2025,4,23,3,32,0,0,0,0,0,1,0.6,0.8,0,0,29,26,0,29,35,22,30,0,43,0,0,0,0,30,0,0,0,42,0,0,0,0,0,36,22,0,0,28,0,0,,,,,,,,,,,,,,,,,,,,,,,,,,,,,,,,,,,,,,,,,,,,,,,,,,,,,,,
6,6608,9,VKACP,0.2,3,   boost,84.83,101001,27.01,2.84,     NaN,35,8.09,8.08,3.98,0,10.23,0,130.13,130.25,0,0,0,0,    NaN,8.05,8.12,8.1,0,0,1,1,15,-32.7595028,142.4868698,71,2025,4,23,3,32,0,0,0,0,0,1,0.6,0.8,0,0,29,26,0,29,35,22,30,0,43,0,0,0,0,30,0,0,0,42,0,0,0,0,0,36,22,0,0,28,0,0,,,,,,,,,,,,,,,,,,,,,,,,,,,,,,,,,,,,,,,,,,,,,,,,,,,,,,,
6,6608,9,VKACP,0.21,3,   boost,41.68,100999,27.17,3,     NaN,35,8.09,8.08,3.98,0,10.23,0,130.13,130.25,0,0,0,0,    NaN,8.05,8.12,8.1,0,0,1,1,15,-32.7595028,142.4868698,71,2025,4,23,3,32,0,0,0,0,0,1,0.6,0.8,0,0,29,26,0,29,35,22,30,0,43,0,0,0,0,30,0,0,0,42,0,0,0,0,0,36,22,0,0,28,0,0,,,,,,,,,,,,,,,,,,,,,,,,,,,,,,,,,,,,,,,,,,,,,,,,,,,,,,,
6,6608,9,VKACP,0.22,3,   boost,83.36,100975,29.18,5.01,     NaN,35,8.09,8.08,3.98,0,10.23,0,130.13,130.25,0,0,0,0,    NaN,8.05,8.12,8.1,0,0,1,1,15,-32.7595028,142.4868698,71,2025,4,23,3,32,0,0,0,0,0,1,0.6,0.8,0,0,29,26,0,29,35,22,30,0,43,0,0,0,0,30,0,0,0,42,0,0,0,0,0,36,22,0,0,28,0,0,,,,,,,,,,,,,,,,,,,,,,,,,,,,,,,,,,,,,,,,,,,,,,,,,,,,,,,
6,6608,9,VKACP,0.23,3,   boost,61.29,100986,28.26,4.09,     NaN,35,8.09,8.08,3.98,0,10.23,0,130.13,130.25,0,0,0,0,    NaN,8.05,8.12,8.1,0,0,1,1,15,-32.7595028,142.4868698,71,2025,4,23,3,32,0,0,0,0,0,1,0.6,0.8,0,0,29,26,0,29,35,22,30,0,43,0,0,0,0,30,0,0,0,42,0,0,0,0,0,36,22,0,0,28,0,0,,,,,,,,,,,,,,,,,,,,,,,,,,,,,,,,,,,,,,,,,,,,,,,,,,,,,,,
6,6608,9,VKACP,0.23,3,   boost,61.29,100986,28.26,4.09,     NaN,35,8.09,8.08,3.98,0,10.23,0,130.13,130.25,0,0,0,0,    NaN,8.05,8.12,8.1,0,0,1,1,15,-32.7595028,142.4868698,71,2025,4,23,3,32,0,0,0,0,0,1,0.6,0.8,0,0,29,26,0,29,35,22,30,0,43,0,0,0,0,30,0,0,0,42,0,0,0,0,0,36,22,0,0,28,0,0,,,,,,,,,,,,,,,,,,,,,,,,,,,,,,,,,,,,,,,,,,,,,,,,,,,,,,,
6,6608,9,VKACP,0.23,3,   boost,61.29,100986,28.26,4.09,     NaN,35,8.09,8.08,3.98,0,10.23,0,130.13,130.25,0,0,0,0,    NaN,8.05,8.12,8.1,0,0,1,1,15,-32.7595028,142.4868698,71,2025,4,23,3,32,0,0,0,0,0,1,0.6,0.8,0,0,29,26,0,29,35,22,30,0,43,0,0,0,0,30,0,0,0,42,0,0,0,0,0,36,22,0,0,28,0,0,,,,,,,,,,,,,,,,,,,,,,,,,,,,,,,,,,,,,,,,,,,,,,,,,,,,,,,
6,6608,9,VKACP,0.24,3,   boost,83.85,100982,28.59,4.42,     NaN,35,8.09,8.08,3.98,0,10.23,0,130.13,130.25,0,0,0,0,    NaN,8.05,8.12,8.1,0,0,1,1,15,-32.7595039,142.4868699,71,2025,4,23,3,32,1,0,0,176,0,1,0.6,0.8,0,0,29,26,0,28,35,22,30,0,43,0,0,0,0,30,0,0,0,42,0,0,0,0,0,36,23,0,0,29,0,0,,,,,,,,,,,,,,,,,,,,,,,,,,,,,,,,,,,,,,,,,,,,,,,,,,,,,,,
6,6608,9,VKACP,0.25,3,   boost,57.37,100984,28.42,4.26,     NaN,35,8.09,8.08,3.98,0,10.23,0,130.13,130.25,0,0,0,0,    NaN,8.05,8.12,8.1,0,0,1,1,15,-32.7595039,142.4868699,71,2025,4,23,3,32,1,0,0,176,0,1,0.6,0.8,0,0,29,26,0,28,35,22,30,0,43,0,0,0,0,30,0,0,0,42,0,0,0,0,0,36,23,0,0,29,0,0,,,,,,,,,,,,,,,,,,,,,,,,,,,,,,,,,,,,,,,,,,,,,,,,,,,,,,,
6,6608,9,VKACP,0.26,3,   boost,45.6,100969,29.68,5.51,     NaN,35,8.09,8.08,3.98,0,10.23,0,130.13,130.25,0,0,0,0,    NaN,8.05,8.12,8.1,0,0,1,1,15,-32.7595039,142.4868699,71,2025,4,23,3,32,1,0,0,176,0,1,0.6,0.8,0,0,29,26,0,28,35,22,30,0,43,0,0,0,0,30,0,0,0,42,0,0,0,0,0,36,23,0,0,29,0,0,,,,,,,,,,,,,,,,,,,,,,,,,,,,,,,,,,,,,,,,,,,,,,,,,,,,,,,
6,6608,9,VKACP,0.27,3,   boost,85.32,101014,25.92,1.75,     NaN,35,8.09,8.08,3.98,0,10.23,0,130.13,130.25,0,0,0,0,    NaN,8.05,8.12,8.1,0,0,1,1,15,-32.7595039,142.4868699,71,2025,4,23,3,32,1,0,0,176,0,1,0.6,0.8,0,0,29,26,0,28,35,22,30,0,43,0,0,0,0,30,0,0,0,42,0,0,0,0,0,36,23,0,0,29,0,0,,,,,,,,,,,,,,,,,,,,,,,,,,,,,,,,,,,,,,,,,,,,,,,,,,,,,,,
6,6608,9,VKACP,0.28,3,   boost,40.7,100973,29.34,5.17,     NaN,35,8.09,8.08,3.98,0,10.23,0,130.13,130.25,0,0,0,0,    NaN,8.05,8.12,8.1,0,0,1,1,15,-32.7595039,142.4868699,71,2025,4,23,3,32,1,0,0,176,0,1,0.6,0.8,0,0,29,26,0,28,35,22,30,0,43,0,0,0,0,30,0,0,0,42,0,0,0,0,0,36,23,0,0,29,0,0,,,,,,,,,,,,,,,,,,,,,,,,,,,,,,,,,,,,,,,,,,,,,,,,,,,,,,,
6,6608,9,VKACP,0.29,3,   boost,92.67,100965,30.01,5.84,     NaN,35,8.09,8.08,3.98,0,10.23,0,130.13,130.25,0,0,0,0,    NaN,8.05,8.12,8.1,0,0,1,1,15,-32.7595039,142.4868699,71,2025,4,23,3,32,1,0,0,176,0,1,0.6,0.8,0,0,29,26,0,28,35,22,30,0,43,0,0,0,0,30,0,0,0,42,0,0,0,0,0,36,23,0,0,29,0,0,,,,,,,,,,,,,,,,,,,,,,,,,,,,,,,,,,,,,,,,,,,,,,,,,,,,,,,
6,6608,9,VKACP,0.3,3,   boost,40.7,100976,29.09,4.92,     NaN,35,8.09,8.08,3.98,0,10.23,0,130.13,130.25,0,0,0,0,    NaN,8.05,8.12,8.1,0,0,1,1,15,-32.7595039,142.4868699,71,2025,4,23,3,32,1,0,0,176,0,1,0.6,0.8,0,0,29,26,0,28,35,22,30,0,43,0,0,0,0,30,0,0,0,42,0,0,0,0,0,36,23,0,0,29,0,0,,,,,,,,,,,,,,,,,,,,,,,,,,,,,,,,,,,,,,,,,,,,,,,,,,,,,,,
6,6608,9,VKACP,0.31,3,   boost,79.92,100978,28.93,4.76,     NaN,35,8.09,8.08,3.98,0,10.23,0,130.13,130.25,0,0,0,0,    NaN,8.05,8.12,8.1,0,0,1,1,15,-32.7595039,142.4868699,71,2025,4,23,3,32,1,0,0,176,0,1,0.6,0.8,0,0,29,26,0,28,35,22,30,0,43,0,0,0,0,30,0,0,0,42,0,0,0,0,0,36,23,0,0,29,0,0,,,,,,,,,,,,,,,,,,,,,,,,,,,,,,,,,,,,,,,,,,,,,,,,,,,,,,,
6,6608,9,VKACP,0.32,3,   boost,66.69,100962,30.26,6.09,     NaN,35,8.09,8.08,3.98,0,10.23,0,130.13,130.25,0,0,0,0,    NaN,8.05,8.12,8.1,0,0,1,1,15,-32.7595039,142.4868699,71,2025,4,23,3,32,1,0,0,176,0,1,0.6,0.8,0,0,29,26,0,28,35,22,30,0,43,0,0,0,0,30,0,0,0,42,0,0,0,0,0,36,23,0,0,29,0,0,,,,,,,,,,,,,,,,,,,,,,,,,,,,,,,,,,,,,,,,,,,,,,,,,,,,,,,
6,6608,9,VKACP,0.33,3,   boost,71.59,100965,30.01,5.84,     NaN,35,8.09,8.08,3.98,0,10.23,0,130.13,130.25,0,0,0,0,    NaN,8.05,8.12,8.1,0,0,1,1,15,-32.7595039,142.4868699,71,2025,4,23,3,32,1,0,0,176,0,1,0.6,0.8,0,0,29,26,0,28,35,22,30,0,43,0,0,0,0,30,0,0,0,42,0,0,0,0,0,36,23,0,0,29,0,0,,,,,,,,,,,,,,,,,,,,,,,,,,,,,,,,,,,,,,,,,,,,,,,,,,,,,,,
6,6608,9,VKACP,0.34,3,   boost,51.98,100948,31.43,7.26,     NaN,35,8.08,8.11,4.01,0,10.23,0,130.13,130.25,0,0,0,0,    NaN,8.07,8.14,8.11,0,0,1,1,15,-32.7595039,142.4868699,71,2025,4,23,3,32,1,0,0,176,0,1,0.6,0.8,0,0,29,26,0,28,35,22,30,0,43,0,0,0,0,30,0,0,0,42,0,0,0,0,0,36,23,0,0,29,0,0,,,,,,,,,,,,,,,,,,,,,,,,,,,,,,,,,,,,,,,,,,,,,,,,,,,,,,,
6,6608,9,VKACP,0.34,3,   boost,51.98,100948,31.43,7.26,     NaN,35,8.08,8.11,4.01,0,10.23,0,130.13,130.25,0,0,0,0,    NaN,8.07,8.14,8.11,0,0,1,1,15,-32.7595039,142.4868699,71,2025,4,23,3,32,1,0,0,176,0,1,0.6,0.8,0,0,29,26,0,28,35,22,30,0,43,0,0,0,0,30,0,0,0,42,0,0,0,0,0,36,23,0,0,29,0,0,,,,,,,,,,,,,,,,,,,,,,,,,,,,,,,,,,,,,,,,,,,,,,,,,,,,,,,
6,6608,9,VKACP,0.35,3,   boost,46.09,100971,29.51,5.34,     NaN,35,8.08,8.11,4.01,0,10.24,0,130.56,130.13,0,0,0,0,    NaN,8.07,8.14,8.11,0,0,1,1,15,-32.7595039,142.4868699,71,2025,4,23,3,32,1,0,0,176,0,1,0.6,0.8,0,0,29,26,0,28,35,22,30,0,43,0,0,0,0,30,0,0,0,42,0,0,0,0,0,36,23,0,0,29,0,0,,,,,,,,,,,,,,,,,,,,,,,,,,,,,,,,,,,,,,,,,,,,,,,,,,,,,,,
6,6608,9,VKACP,0.36,3,   boost,75.02,100939,32.18,8.01,     NaN,35,8.08,8.11,4.01,0,10.24,0,130.56,130.13,0,0,0,0,    NaN,8.07,8.14,8.11,0,0,1,1,15,-32.7595039,142.4868699,71,2025,4,23,3,32,1,0,0,176,0,1,0.6,0.8,0,0,29,26,0,28,35,22,30,0,43,0,0,0,0,30,0,0,0,42,0,0,0,0,0,36,23,0,0,29,0,0,,,,,,,,,,,,,,,,,,,,,,,,,,,,,,,,,,,,,,,,,,,,,,,,,,,,,,,
6,6608,9,VKACP,0.37,3,   boost,56.88,100941,32.01,7.85,     NaN,35,8.08,8.11,4.01,0,10.24,0,130.56,130.13,0,0,0,0,    NaN,8.07,8.14,8.11,0,0,1,1,15,-32.7595039,142.4868699,71,2025,4,23,3,32,1,0,0,176,0,1,0.6,0.8,0,0,29,26,0,28,35,22,30,0,43,0,0,0,0,30,0,0,0,42,0,0,0,0,0,36,23,0,0,29,0,0,,,,,,,,,,,,,,,,,,,,,,,,,,,,,,,,,,,,,,,,,,,,,,,,,,,,,,,
6,6608,9,VKACP,0.38,3,   boost,89.73,100963,30.18,6.01,     NaN,35,8.08,8.11,4.01,0,10.24,0,130.56,130.13,0,0,0,0,    NaN,8.07,8.14,8.11,0,0,1,1,15,-32.7595039,142.4868699,71,2025,4,23,3,32,1,0,0,176,0,1,0.6,0.8,0,0,29,26,0,28,35,22,30,0,43,0,0,0,0,30,0,0,0,42,0,0,0,0,0,36,23,0,0,29,0,0,,,,,,,,,,,,,,,,,,,,,,,,,,,,,,,,,,,,,,,,,,,,,,,,,,,,,,,
6,6608,9,VKACP,0.39,3,   boost,47.07,100956,30.76,6.59,     NaN,35,8.08,8.11,4.01,0,10.24,0,130.56,130.13,0,0,0,0,    NaN,8.07,8.14,8.11,0,0,1,1,15,-32.7595039,142.4868699,71,2025,4,23,3,32,1,0,0,176,0,1,0.6,0.8,0,0,29,26,0,28,35,22,30,0,43,0,0,0,0,30,0,0,0,42,0,0,0,0,0,36,23,0,0,29,0,0,,,,,,,,,,,,,,,,,,,,,,,,,,,,,,,,,,,,,,,,,,,,,,,,,,,,,,,
6,6608,9,VKACP,0.4,3,   boost,101.01,100945,31.68,7.51,     NaN,35,8.08,8.11,4.01,0,10.24,0,130.56,130.13,0,0,0,0,    NaN,8.07,8.14,8.11,0,0,1,1,15,-32.7595039,142.4868699,71,2025,4,23,3,32,1,0,0,176,0,1,0.6,0.8,0,0,29,26,0,28,35,22,30,0,43,0,0,0,0,30,0,0,0,42,0,0,0,0,0,36,23,0,0,29,0,0,,,,,,,,,,,,,,,,,,,,,,,,,,,,,,,,,,,,,,,,,,,,,,,,,,,,,,,
6,6608,9,VKACP,0.41,3,   boost,47.56,100955,30.85,6.68,     NaN,35,8.08,8.11,4.01,0,10.24,0,130.56,130.13,0,0,0,0,    NaN,8.07,8.14,8.11,0,0,1,1,15,-32.7595039,142.4868699,71,2025,4,23,3,32,1,0,0,176,0,1,0.6,0.8,0,0,29,26,0,28,35,22,30,0,43,0,0,0,0,30,0,0,0,42,0,0,0,0,0,36,23,0,0,29,0,0,,,,,,,,,,,,,,,,,,,,,,,,,,,,,,,,,,,,,,,,,,,,,,,,,,,,,,,
6,6608,9,VKACP,0.42,3,   boost,91.69,100931,32.85,8.68,     NaN,35,8.08,8.11,4.01,0,10.24,0,130.56,130.13,0,0,0,0,    NaN,8.07,8.14,8.11,0,0,1,1,15,-32.7595039,142.4868699,71,2025,4,23,3,32,1,0,0,176,0,1,0.6,0.8,0,0,29,26,0,28,35,22,30,0,43,0,0,0,0,30,0,0,0,42,0,0,0,0,0,36,23,0,0,29,0,0,,,,,,,,,,,,,,,,,,,,,,,,,,,,,,,,,,,,,,,,,,,,,,,,,,,,,,,
6,6608,9,VKACP,0.43,3,   boost,86.3,100944,31.76,7.6,     NaN,35,8.08,8.11,4.01,0,10.24,0,130.56,130.13,0,0,0,0,    NaN,8.07,8.14,8.11,0,0,1,1,15,-32.7595039,142.4868699,71,2025,4,23,3,32,1,0,0,176,0,1,0.6,0.8,0,0,29,26,0,28,35,22,30,0,43,0,0,0,0,30,0,0,0,42,0,0,0,0,0,36,23,0,0,29,0,0,,,,,,,,,,,,,,,,,,,,,,,,,,,,,,,,,,,,,,,,,,,,,,,,,,,,,,,
6,6608,9,VKACP,0.44,3,   boost,49.52,100931,32.85,8.68,     NaN,35,8.08,8.11,4.01,0,10.24,0,130.56,130.13,0,0,0,0,    NaN,8.07,8.14,8.11,0,0,1,1,15,-32.7595039,142.4868699,71,2025,4,23,3,32,1,0,0,176,0,1,0.6,0.8,0,0,29,26,0,28,35,22,30,0,43,0,0,0,0,30,0,0,0,42,0,0,0,0,0,36,23,0,0,29,0,0,,,,,,,,,,,,,,,,,,,,,,,,,,,,,,,,,,,,,,,,,,,,,,,,,,,,,,,
6,6608,9,VKACP,0.45,3,   boost,73.55,100912,34.44,10.27,     NaN,35,8.08,8.11,4.01,0,10.24,0,130.56,130.13,0,0,0,0,    NaN,8.07,8.14,8.11,0,0,1,1,15,-32.7595039,142.4868699,71,2025,4,23,3,32,1,0,0,176,0,1,0.6,0.8,0,0,29,26,0,28,35,22,30,0,43,0,0,0,0,30,0,0,0,42,0,0,0,0,0,36,23,0,0,29,0,0,,,,,,,,,,,,,,,,,,,,,,,,,,,,,,,,,,,,,,,,,,,,,,,,,,,,,,,
6,6608,9,VKACP,0.46,3,   boost,46.58,100930,32.93,8.76,     NaN,35,8.08,8.11,4.01,0,10.24,0,130.56,130.13,0,0,0,0,    NaN,8.07,8.14,8.11,0,0,1,1,15,-32.7595039,142.4868699,71,2025,4,23,3,32,1,0,0,176,0,1,0.6,0.8,0,0,29,26,0,28,35,22,30,0,43,0,0,0,0,30,0,0,0,42,0,0,0,0,0,36,23,0,0,29,0,0,,,,,,,,,,,,,,,,,,,,,,,,,,,,,,,,,,,,,,,,,,,,,,,,,,,,,,,
6,6608,9,VKACP,0.47,3,   boost,56.88,100915,34.19,10.02,     NaN,35,8.08,8.11,4.01,0,10.24,0,130.56,130.13,0,0,0,0,    NaN,8.07,8.14,8.11,0,0,1,1,15,-32.7595039,142.4868699,71,2025,4,23,3,32,1,0,0,176,0,1,0.6,0.8,0,0,29,26,0,28,35,22,30,0,43,0,0,0,0,30,0,0,0,42,0,0,0,0,0,36,23,0,0,29,0,0,,,,,,,,,,,,,,,,,,,,,,,,,,,,,,,,,,,,,,,,,,,,,,,,,,,,,,,
6,6608,9,VKACP,0.48,3,   boost,76.98,100941,32.01,7.85,     NaN,35,8.08,8.11,4.01,0,10.24,0,130.56,130.13,0,0,0,0,    NaN,8.07,8.14,8.11,0,0,1,1,15,-32.7595039,142.4868699,71,2025,4,23,3,32,1,0,0,176,0,1,0.6,0.8,0,0,29,26,0,28,35,22,30,0,43,0,0,0,0,30,0,0,0,42,0,0,0,0,0,36,23,0,0,29,0,0,,,,,,,,,,,,,,,,,,,,,,,,,,,,,,,,,,,,,,,,,,,,,,,,,,,,,,,
6,6608,9,VKACP,0.49,3,   boost,42.66,100895,35.86,11.69,     NaN,35,8.08,8.11,4.01,0,10.24,0,130.56,130.13,0,0,0,0,    NaN,8.07,8.14,8.11,0,0,1,1,15,-32.7595039,142.4868699,71,2025,4,23,3,32,1,0,0,176,0,1,0.6,0.8,0,0,29,26,0,28,35,22,30,0,43,0,0,0,0,30,0,0,0,42,0,0,0,0,0,36,23,0,0,29,0,0,,,,,,,,,,,,,,,,,,,,,,,,,,,,,,,,,,,,,,,,,,,,,,,,,,,,,,,
6,6608,9,VKACP,0.5,3,   boost,61.29,100917,34.02,9.85,     NaN,35,8.08,8.11,4.01,0,10.24,0,130.56,130.13,0,0,0,0,    NaN,8.07,8.14,8.11,0,0,1,1,15,-32.7595039,142.4868699,71,2025,4,23,3,32,1,0,0,176,0,1,0.6,0.8,0,0,29,26,0,28,35,22,30,0,43,0,0,0,0,30,0,0,0,42,0,0,0,0,0,36,23,0,0,29,0,0,,,,,,,,,,,,,,,,,,,,,,,,,,,,,,,,,,,,,,,,,,,,,,,,,,,,,,,
6,6608,9,VKACP,0.51,3,   boost,60.31,100894,35.94,11.77,     NaN,35,8.08,8.11,4.01,0,10.24,0,130.56,130.13,0,0,0,0,    NaN,8.07,8.14,8.11,0,0,1,1,15,-32.7595039,142.4868699,71,2025,4,23,3,32,1,0,0,176,0,1,0.6,0.8,0,0,29,26,0,28,35,22,30,0,43,0,0,0,0,30,0,0,0,42,0,0,0,0,0,36,23,0,0,29,0,0,,,,,,,,,,,,,,,,,,,,,,,,,,,,,,,,,,,,,,,,,,,,,,,,,,,,,,,
6,6608,9,VKACP,0.52,3,   boost,39.23,100900,35.44,11.27,     NaN,35,8.08,8.11,4.01,0,10.24,0,130.56,130.13,0,0,0,0,    NaN,8.07,8.14,8.11,0,0,1,1,15,-32.7595039,142.4868699,71,2025,4,23,3,32,1,0,0,176,0,1,0.6,0.8,0,0,29,26,0,28,35,22,30,0,43,0,0,0,0,30,0,0,0,42,0,0,0,0,0,36,23,0,0,29,0,0,,,,,,,,,,,,,,,,,,,,,,,,,,,,,,,,,,,,,,,,,,,,,,,,,,,,,,,
6,6608,9,VKACP,0.53,3,   boost,65.21,100920,33.77,9.6,     NaN,35,8.08,8.11,4.01,0,10.24,0,130.56,130.13,0,0,0,0,    NaN,8.07,8.14,8.11,0,0,1,1,15,-32.7595039,142.4868699,71,2025,4,23,3,32,1,0,0,176,0,1,0.6,0.8,0,0,29,26,0,28,35,22,30,0,43,0,0,0,0,30,0,0,0,42,0,0,0,0,0,36,23,0,0,29,0,0,,,,,,,,,,,,,,,,,,,,,,,,,,,,,,,,,,,,,,,,,,,,,,,,,,,,,,,
6,6608,9,VKACP,0.54,3,   boost,52.47,100873,37.69,13.53,     NaN,35,8.08,8.11,4.01,0,10.24,0,130.56,130.13,0,0,0,0,    NaN,8.07,8.14,8.11,0,0,1,1,15,-32.7595039,142.4868699,71,2025,4,23,3,32,1,0,0,176,0,1,0.6,0.8,0,0,29,26,0,28,35,22,30,0,43,0,0,0,0,30,0,0,0,42,0,0,0,0,0,36,23,0,0,29,0,0,,,,,,,,,,,,,,,,,,,,,,,,,,,,,,,,,,,,,,,,,,,,,,,,,,,,,,,
6,6608,9,VKACP,0.55,3,   boost,51.98,100884,36.77,12.61,     NaN,35,8.08,8.11,4.01,0,10.24,0,130.56,130.13,0,0,0,0,    NaN,8.07,8.14,8.11,0,0,1,1,15,-32.7595039,142.4868699,71,2025,4,23,3,32,1,0,0,176,0,1,0.6,0.8,0,0,29,26,0,28,35,22,30,0,43,0,0,0,0,30,0,0,0,42,0,0,0,0,0,36,23,0,0,29,0,0,,,,,,,,,,,,,,,,,,,,,,,,,,,,,,,,,,,,,,,,,,,,,,,,,,,,,,,
6,6608,9,VKACP,0.56,3,   boost,59.82,100896,35.77,11.6,     NaN,35,8.08,8.11,4.01,0,10.24,0,130.56,130.13,0,0,0,0,    NaN,8.07,8.14,8.11,0,0,1,1,15,-32.7595039,142.4868699,71,2025,4,23,3,32,1,0,0,176,0,1,0.6,0.8,0,0,29,26,0,28,35,22,30,0,43,0,0,0,0,30,0,0,0,42,0,0,0,0,0,36,23,0,0,29,0,0,,,,,,,,,,,,,,,,,,,,,,,,,,,,,,,,,,,,,,,,,,,,,,,,,,,,,,,
6,6608,9,VKACP,0.57,3,   boost,62.27,100879,37.19,13.02,     NaN,35,8.08,8.11,4.01,0,10.24,0,130.56,130.13,0,0,0,0,    NaN,8.07,8.14,8.11,0,0,1,1,15,-32.7595039,142.4868699,71,2025,4,23,3,32,1,0,0,176,0,1,0.6,0.8,0,0,29,26,0,28,35,22,30,0,43,0,0,0,0,30,0,0,0,42,0,0,0,0,0,36,23,0,0,29,0,0,,,,,,,,,,,,,,,,,,,,,,,,,,,,,,,,,,,,,,,,,,,,,,,,,,,,,,,
6,6608,9,VKACP,0.58,3,   boost,50.5,100875,37.53,13.36,     NaN,35,8.08,8.11,4.01,0,10.24,0,130.56,130.13,0,0,0,0,    NaN,8.07,8.14,8.11,0,0,1,1,15,-32.7595039,142.4868699,71,2025,4,23,3,32,1,0,0,176,0,1,0.6,0.8,0,0,29,26,0,28,35,22,30,0,43,0,0,0,0,30,0,0,0,42,0,0,0,0,0,36,23,0,0,29,0,0,,,,,,,,,,,,,,,,,,,,,,,,,,,,,,,,,,,,,,,,,,,,,,,,,,,,,,,
6,6608,9,VKACP,0.59,3,   boost,62.27,100867,38.19,14.03,     NaN,35,8.08,8.11,4.01,0,10.24,0,130.56,130.13,0,0,0,0,    NaN,8.07,8.14,8.11,0,0,1,1,15,-32.7595039,142.4868699,71,2025,4,23,3,32,1,0,0,176,0,1,0.6,0.8,0,0,29,26,0,28,35,22,30,0,43,0,0,0,0,30,0,0,0,42,0,0,0,0,0,36,23,0,0,29,0,0,,,,,,,,,,,,,,,,,,,,,,,,,,,,,,,,,,,,,,,,,,,,,,,,,,,,,,,
6,6608,9,VKACP,0.6,3,   boost,77.96,100854,39.28,15.11,     NaN,35,8.08,8.11,4.01,0,10.24,0,130.56,130.13,0,0,0,0,    NaN,8.07,8.14,8.11,0,0,1,1,15,-32.7595039,142.4868699,71,2025,4,23,3,32,1,0,0,176,0,1,0.6,0.8,0,0,29,26,0,28,35,22,30,0,43,0,0,0,0,30,0,0,0,42,0,0,0,0,0,36,23,0,0,29,0,0,,,,,,,,,,,,,,,,,,,,,,,,,,,,,,,,,,,,,,,,,,,,,,,,,,,,,,,
6,6608,9,VKACP,0.61,3,   boost,76.98,100880,37.11,12.94,     NaN,35,8.08,8.11,4.01,0,10.24,0,130.56,130.13,0,0,0,0,    NaN,8.07,8.14,8.11,0,0,1,1,15,-32.7595039,142.4868699,71,2025,4,23,3,32,1,0,0,176,0,1,0.6,0.8,0,0,29,26,0,28,35,22,30,0,43,0,0,0,0,30,0,0,0,42,0,0,0,0,0,36,23,0,0,29,0,0,,,,,,,,,,,,,,,,,,,,,,,,,,,,,,,,,,,,,,,,,,,,,,,,,,,,,,,
6,6608,9,VKACP,0.62,3,   boost,94.14,100837,40.7,16.53,     NaN,35,8.08,8.11,4.01,0,10.24,0,130.56,130.13,0,0,0,0,    NaN,8.07,8.14,8.11,0,0,1,1,15,-32.7595039,142.4868699,71,2025,4,23,3,32,1,0,0,176,0,1,0.6,0.8,0,0,29,26,0,28,35,22,30,0,43,0,0,0,0,30,0,0,0,42,0,0,0,0,0,36,23,0,0,29,0,0,,,,,,,,,,,,,,,,,,,,,,,,,,,,,,,,,,,,,,,,,,,,,,,,,,,,,,,
6,6608,9,VKACP,0.63,3,   boost,78.94,100851,39.53,15.36,     NaN,35,8.08,8.11,4.01,0,10.24,0,130.56,130.13,0,0,0,0,    NaN,8.07,8.14,8.11,0,0,1,1,15,-32.7595039,142.4868699,71,2025,4,23,3,32,1,0,0,176,0,1,0.6,0.8,0,0,29,26,0,28,35,22,30,0,43,0,0,0,0,30,0,0,0,42,0,0,0,0,0,36,23,0,0,29,0,0,,,,,,,,,,,,,,,,,,,,,,,,,,,,,,,,,,,,,,,,,,,,,,,,,,,,,,,
6,6608,9,VKACP,0.64,3,   boost,65.7,100842,40.28,16.12,     NaN,35,8.08,8.11,4.01,0,10.24,0,130.56,130.13,0,0,0,0,    NaN,8.07,8.14,8.11,0,0,1,1,15,-32.7595039,142.4868699,71,2025,4,23,3,32,1,0,0,176,0,1,0.6,0.8,0,0,29,26,0,28,35,22,30,0,43,0,0,0,0,30,0,0,0,42,0,0,0,0,0,36,23,0,0,29,0,0,,,,,,,,,,,,,,,,,,,,,,,,,,,,,,,,,,,,,,,,,,,,,,,,,,,,,,,
6,6608,9,VKACP,0.65,3,   boost,61.78,100838,40.62,16.45,     NaN,35,8.08,8.11,4.01,0,10.24,0,130.56,130.13,0,0,0,0,    NaN,8.07,8.14,8.11,0,0,1,1,15,-32.7595039,142.4868699,71,2025,4,23,3,32,1,0,0,176,0,1,0.6,0.8,0,0,29,26,0,28,35,22,30,0,43,0,0,0,0,30,0,0,0,42,0,0,0,0,0,36,23,0,0,29,0,0,,,,,,,,,,,,,,,,,,,,,,,,,,,,,,,,,,,,,,,,,,,,,,,,,,,,,,,
6,6608,9,VKACP,0.66,3,   boost,93.16,100838,40.62,16.45,     NaN,35,8.1,8.11,4.01,0,10.24,0,130.56,130.13,0,0,0,0,    NaN,8.07,8.14,8.11,0,0,1,1,15,-32.7595039,142.4868699,71,2025,4,23,3,32,1,0,0,176,0,1,0.6,0.8,0,0,29,26,0,28,35,22,30,0,43,0,0,0,0,30,0,0,0,42,0,0,0,0,0,36,23,0,0,29,0,0,,,,,,,,,,,,,,,,,,,,,,,,,,,,,,,,,,,,,,,,,,,,,,,,,,,,,,,
6,6608,9,VKACP,0.66,3,   boost,93.16,100838,40.62,16.45,     NaN,35,8.1,8.11,4.01,0,10.24,0,130.56,130.13,0,0,0,0,    NaN,8.07,8.14,8.11,0,0,1,1,15,-32.7595039,142.4868699,71,2025,4,23,3,32,1,0,0,176,0,1,0.6,0.8,0,0,29,26,0,28,35,22,30,0,43,0,0,0,0,30,0,0,0,42,0,0,0,0,0,36,23,0,0,29,0,0,,,,,,,,,,,,,,,,,,,,,,,,,,,,,,,,,,,,,,,,,,,,,,,,,,,,,,,
6,6608,9,VKACP,0.67,3,   boost,66.69,100828,41.45,17.29,     NaN,35,8.1,8.11,4.01,0,10.24,0,130.56,130.38,0,0,0,0,    NaN,8.07,8.14,8.11,0,0,1,1,15,-32.7595039,142.4868699,71,2025,4,23,3,32,1,0,0,176,0,1,0.6,0.8,0,0,29,26,0,28,35,22,30,0,43,0,0,0,0,30,0,0,0,42,0,0,0,0,0,36,23,0,0,29,0,0,,,,,,,,,,,,,,,,,,,,,,,,,,,,,,,,,,,,,,,,,,,,,,,,,,,,,,,
6,6608,9,VKACP,0.68,3,   boost,68.65,100821,42.04,17.87,     NaN,35,8.1,8.11,4.01,0,10.24,0,130.56,130.38,0,0,0,0,    NaN,8.07,8.14,8.11,0,0,1,1,15,-32.7595039,142.4868699,71,2025,4,23,3,32,1,0,0,176,0,1,0.6,0.8,0,0,29,26,0,28,35,22,30,0,43,0,0,0,0,30,0,0,0,42,0,0,0,0,0,36,23,0,0,29,0,0,,,,,,,,,,,,,,,,,,,,,,,,,,,,,,,,,,,,,,,,,,,,,,,,,,,,,,,
6,6608,9,VKACP,0.69,3,   boost,68.16,100805,43.38,19.21,     NaN,35,8.1,8.11,4.01,0,10.24,0,130.56,130.38,0,0,0,0,    NaN,8.07,8.14,8.11,0,0,1,1,15,-32.7595039,142.4868699,71,2025,4,23,3,32,1,0,0,176,0,1,0.6,0.8,0,0,29,26,0,28,35,22,30,0,43,0,0,0,0,30,0,0,0,42,0,0,0,0,0,36,23,0,0,29,0,0,,,,,,,,,,,,,,,,,,,,,,,,,,,,,,,,,,,,,,,,,,,,,,,,,,,,,,,
6,6608,9,VKACP,0.7,3,   boost,85.81,100816,42.46,18.29,     NaN,35,8.1,8.11,4.01,0,10.24,0,130.56,130.38,0,0,0,0,    NaN,8.07,8.14,8.11,0,0,1,1,15,-32.7595039,142.4868699,71,2025,4,23,3,32,1,0,0,176,0,1,0.6,0.8,0,0,29,26,0,28,35,22,30,0,43,0,0,0,0,30,0,0,0,42,0,0,0,0,0,36,23,0,0,29,0,0,,,,,,,,,,,,,,,,,,,,,,,,,,,,,,,,,,,,,,,,,,,,,,,,,,,,,,,
6,6608,9,VKACP,0.71,3,   boost,61.78,100790,44.63,20.46,     NaN,35,8.1,8.11,4.01,0,10.24,0,130.56,130.38,0,0,0,0,    NaN,8.07,8.14,8.11,0,0,1,1,15,-32.7595039,142.4868699,71,2025,4,23,3,32,1,0,0,176,0,1,0.6,0.8,0,0,29,26,0,28,35,22,30,0,43,0,0,0,0,30,0,0,0,42,0,0,0,0,0,36,23,0,0,29,0,0,,,,,,,,,,,,,,,,,,,,,,,,,,,,,,,,,,,,,,,,,,,,,,,,,,,,,,,
6,6608,9,VKACP,0.72,3,   boost,74.04,100788,44.8,20.63,     NaN,35,8.1,8.11,4.01,0,10.24,0,130.56,130.38,0,0,0,0,    NaN,8.07,8.14,8.11,0,0,1,1,15,-32.7595039,142.4868699,71,2025,4,23,3,32,1,0,0,176,0,1,0.6,0.8,0,0,29,26,0,28,35,22,30,0,43,0,0,0,0,30,0,0,0,42,0,0,0,0,0,36,23,0,0,29,0,0,,,,,,,,,,,,,,,,,,,,,,,,,,,,,,,,,,,,,,,,,,,,,,,,,,,,,,,
6,6608,9,VKACP,0.73,3,   boost,88.75,100796,44.13,19.96,     NaN,35,8.1,8.11,4.01,0,10.24,0,130.56,130.38,0,0,0,0,    NaN,8.07,8.14,8.11,0,0,1,1,15,-32.7595039,142.4868699,71,2025,4,23,3,32,1,0,0,176,0,1,0.6,0.8,0,0,29,26,0,28,35,22,30,0,43,0,0,0,0,30,0,0,0,42,0,0,0,0,0,36,23,0,0,29,0,0,,,,,,,,,,,,,,,,,,,,,,,,,,,,,,,,,,,,,,,,,,,,,,,,,,,,,,,
6,6608,9,VKACP,0.74,3,   boost,60.8,100797,44.04,19.88,     NaN,35,8.1,8.11,4.01,0,10.24,0,130.56,130.38,0,0,0,0,    NaN,8.07,8.14,8.11,0,0,1,1,15,-32.7595039,142.4868699,71,2025,4,23,3,32,1,0,0,176,0,1,0.6,0.8,0,0,29,26,0,28,35,22,30,0,43,0,0,0,0,30,0,0,0,42,0,0,0,0,0,36,23,0,0,29,0,0,,,,,,,,,,,,,,,,,,,,,,,,,,,,,,,,,,,,,,,,,,,,,,,,,,,,,,,
6,6608,9,VKACP,0.75,3,   boost,71.59,100790,44.63,20.46,     NaN,35,8.1,8.11,4.01,0,10.24,0,130.56,130.38,0,0,0,0,    NaN,8.07,8.14,8.11,0,0,1,1,15,-32.7595039,142.4868699,71,2025,4,23,3,32,1,0,0,176,0,1,0.6,0.8,0,0,29,26,0,28,35,22,30,0,43,0,0,0,0,30,0,0,0,42,0,0,0,0,0,36,23,0,0,29,0,0,,,,,,,,,,,,,,,,,,,,,,,,,,,,,,,,,,,,,,,,,,,,,,,,,,,,,,,
6,6608,9,VKACP,0.76,3,   boost,73.55,100771,46.22,22.05,     NaN,35,8.1,8.11,4.01,0,10.24,0,130.56,130.38,0,0,0,0,    NaN,8.07,8.14,8.11,0,0,1,1,15,-32.7595039,142.4868699,71,2025,4,23,3,32,1,0,0,176,0,1,0.6,0.8,0,0,29,26,0,28,35,22,30,0,43,0,0,0,0,30,0,0,0,42,0,0,0,0,0,36,23,0,0,29,0,0,,,,,,,,,,,,,,,,,,,,,,,,,,,,,,,,,,,,,,,,,,,,,,,,,,,,,,,
6,6608,9,VKACP,0.77,3,   boost,60.31,100776,45.8,21.63,     NaN,35,8.1,8.11,4.01,0,10.24,0,130.56,130.38,0,0,0,0,    NaN,8.07,8.14,8.11,0,0,1,1,15,-32.7595039,142.4868699,71,2025,4,23,3,32,1,0,0,176,0,1,0.6,0.8,0,0,29,26,0,28,35,22,30,0,43,0,0,0,0,30,0,0,0,42,0,0,0,0,0,36,23,0,0,29,0,0,,,,,,,,,,,,,,,,,,,,,,,,,,,,,,,,,,,,,,,,,,,,,,,,,,,,,,,
6,6608,9,VKACP,0.78,3,   boost,72.57,100764,46.8,22.64,     NaN,35,8.1,8.11,4.01,0,10.24,0,130.56,130.38,0,0,0,0,    NaN,8.07,8.14,8.11,0,0,1,1,15,-32.7595039,142.4868699,71,2025,4,23,3,32,1,0,0,176,0,1,0.6,0.8,0,0,29,26,0,28,35,22,30,0,43,0,0,0,0,30,0,0,0,42,0,0,0,0,0,36,23,0,0,29,0,0,,,,,,,,,,,,,,,,,,,,,,,,,,,,,,,,,,,,,,,,,,,,,,,,,,,,,,,
6,6608,9,VKACP,0.79,3,   boost,84.83,100771,46.22,22.05,     NaN,35,8.1,8.11,4.01,0,10.24,0,130.56,130.38,0,0,0,0,    NaN,8.07,8.14,8.11,0,0,1,1,15,-32.7595039,142.4868699,71,2025,4,23,3,32,1,0,0,176,0,1,0.6,0.8,0,0,29,26,0,28,35,22,30,0,43,0,0,0,0,30,0,0,0,42,0,0,0,0,0,36,23,0,0,29,0,0,,,,,,,,,,,,,,,,,,,,,,,,,,,,,,,,,,,,,,,,,,,,,,,,,,,,,,,
6,6608,9,VKACP,0.8,3,   boost,81.4,100762,46.97,22.8,     NaN,35,8.1,8.11,4.01,0,10.24,0,130.56,130.38,0,0,0,0,    NaN,8.07,8.14,8.11,0,0,1,1,15,-32.7595039,142.4868699,71,2025,4,23,3,32,1,0,0,176,0,1,0.6,0.8,0,0,29,26,0,28,35,22,30,0,43,0,0,0,0,30,0,0,0,42,0,0,0,0,0,36,23,0,0,29,0,0,,,,,,,,,,,,,,,,,,,,,,,,,,,,,,,,,,,,,,,,,,,,,,,,,,,,,,,
6,6608,9,VKACP,0.81,3,   boost,62.27,100754,47.64,23.47,     NaN,35,8.1,8.11,4.01,0,10.24,0,130.56,130.38,0,0,0,0,    NaN,8.07,8.14,8.11,0,0,1,1,15,-32.7595039,142.4868699,71,2025,4,23,3,32,1,0,0,176,0,1,0.6,0.8,0,0,29,26,0,28,35,22,30,0,43,0,0,0,0,30,0,0,0,42,0,0,0,0,0,36,23,0,0,29,0,0,,,,,,,,,,,,,,,,,,,,,,,,,,,,,,,,,,,,,,,,,,,,,,,,,,,,,,,
6,6608,9,VKACP,0.82,3,   boost,87.77,100752,47.81,23.64,     NaN,35,8.1,8.11,4.01,0,10.24,0,130.56,130.38,0,0,0,0,    NaN,8.07,8.14,8.11,0,0,1,1,15,-32.7595039,142.4868699,71,2025,4,23,3,32,1,0,0,176,0,1,0.6,0.8,0,0,29,26,0,28,35,22,30,0,43,0,0,0,0,30,0,0,0,42,0,0,0,0,0,36,23,0,0,29,0,0,,,,,,,,,,,,,,,,,,,,,,,,,,,,,,,,,,,,,,,,,,,,,,,,,,,,,,,
6,6608,9,VKACP,0.83,3,   boost,83.85,100745,48.39,24.22,     NaN,35,8.1,8.11,4.01,0,10.24,0,130.56,130.38,0,0,0,0,    NaN,8.07,8.14,8.11,0,0,1,1,15,-32.7595039,142.4868699,71,2025,4,23,3,32,1,0,0,176,0,1,0.6,0.8,0,0,29,26,0,28,35,22,30,0,43,0,0,0,0,30,0,0,0,42,0,0,0,0,0,36,23,0,0,29,0,0,,,,,,,,,,,,,,,,,,,,,,,,,,,,,,,,,,,,,,,,,,,,,,,,,,,,,,,
6,6608,9,VKACP,0.84,3,   boost,59.82,100732,49.48,25.31,     NaN,35,8.1,8.11,4.01,0,10.24,0,130.56,130.38,0,0,0,0,    NaN,8.07,8.14,8.11,0,0,1,1,15,-32.7595039,142.4868699,71,2025,4,23,3,32,1,0,0,176,0,1,0.6,0.8,0,0,29,26,0,28,35,22,30,0,43,0,0,0,0,30,0,0,0,42,0,0,0,0,0,36,23,0,0,29,0,0,,,,,,,,,,,,,,,,,,,,,,,,,,,,,,,,,,,,,,,,,,,,,,,,,,,,,,,
6,6608,9,VKACP,0.85,3,   boost,64.23,100722,50.32,26.15,     NaN,35,8.1,8.11,4.01,0,10.24,0,130.56,130.38,0,0,0,0,    NaN,8.07,8.14,8.11,0,0,1,1,15,-32.7595039,142.4868699,71,2025,4,23,3,32,1,0,0,176,0,1,0.6,0.8,0,0,29,26,0,28,35,22,30,0,43,0,0,0,0,30,0,0,0,42,0,0,0,0,0,36,23,0,0,29,0,0,,,,,,,,,,,,,,,,,,,,,,,,,,,,,,,,,,,,,,,,,,,,,,,,,,,,,,,
6,6608,9,VKACP,0.86,3,   boost,81.89,100723,50.23,26.06,     NaN,35,8.1,8.11,4.01,0,10.24,0,130.56,130.38,0,0,0,0,    NaN,8.07,8.14,8.11,0,0,1,1,15,-32.7595039,142.4868699,71,2025,4,23,3,32,1,0,0,176,0,1,0.6,0.8,0,0,29,26,0,28,35,22,30,0,43,0,0,0,0,30,0,0,0,42,0,0,0,0,0,36,23,0,0,29,0,0,,,,,,,,,,,,,,,,,,,,,,,,,,,,,,,,,,,,,,,,,,,,,,,,,,,,,,,
6,6608,9,VKACP,0.87,3,   boost,76,100729,49.73,25.56,     NaN,35,8.1,8.11,4.01,0,10.24,0,130.56,130.38,0,0,0,0,    NaN,8.07,8.14,8.11,0,0,1,1,15,-32.7595039,142.4868699,71,2025,4,23,3,32,1,0,0,176,0,1,0.6,0.8,0,0,29,26,0,28,35,22,30,0,43,0,0,0,0,30,0,0,0,42,0,0,0,0,0,36,23,0,0,29,0,0,,,,,,,,,,,,,,,,,,,,,,,,,,,,,,,,,,,,,,,,,,,,,,,,,,,,,,,
6,6608,9,VKACP,0.88,3,   boost,68.16,100711,51.24,27.07,     NaN,35,8.1,8.11,4.01,0,10.24,0,130.56,130.38,0,0,0,0,    NaN,8.07,8.14,8.11,0,0,1,1,15,-32.7595039,142.4868699,71,2025,4,23,3,32,1,0,0,176,0,1,0.6,0.8,0,0,29,26,0,28,35,22,30,0,43,0,0,0,0,30,0,0,0,42,0,0,0,0,0,36,23,0,0,29,0,0,,,,,,,,,,,,,,,,,,,,,,,,,,,,,,,,,,,,,,,,,,,,,,,,,,,,,,,
6,6608,9,VKACP,0.89,3,   boost,77.47,100703,51.91,27.74,     NaN,35,8.1,8.11,4.01,0,10.24,0,130.56,130.38,0,0,0,0,    NaN,8.07,8.14,8.11,0,0,1,1,15,-32.7595039,142.4868699,71,2025,4,23,3,32,1,0,0,176,0,1,0.6,0.8,0,0,29,26,0,28,35,22,30,0,43,0,0,0,0,30,0,0,0,42,0,0,0,0,0,36,23,0,0,29,0,0,,,,,,,,,,,,,,,,,,,,,,,,,,,,,,,,,,,,,,,,,,,,,,,,,,,,,,,
6,6608,9,VKACP,0.9,3,   boost,50.5,100711,51.24,27.07,     NaN,35,8.1,8.11,4.01,0,10.24,0,130.56,130.38,0,0,0,0,    NaN,8.07,8.14,8.11,0,0,1,1,15,-32.7595039,142.4868699,71,2025,4,23,3,32,1,0,0,176,0,1,0.6,0.8,0,0,29,26,0,28,35,22,30,0,43,0,0,0,0,30,0,0,0,42,0,0,0,0,0,36,23,0,0,29,0,0,,,,,,,,,,,,,,,,,,,,,,,,,,,,,,,,,,,,,,,,,,,,,,,,,,,,,,,
6,6608,9,VKACP,0.91,3,   boost,63.25,100690,52.99,28.83,     NaN,35,8.1,8.11,4.01,0,10.24,0,130.56,130.38,0,0,0,0,    NaN,8.07,8.14,8.11,0,0,1,1,15,-32.7595039,142.4868699,71,2025,4,23,3,32,1,0,0,176,0,1,0.6,0.8,0,0,29,26,0,28,35,22,30,0,43,0,0,0,0,30,0,0,0,42,0,0,0,0,0,36,23,0,0,29,0,0,,,,,,,,,,,,,,,,,,,,,,,,,,,,,,,,,,,,,,,,,,,,,,,,,,,,,,,
6,6608,9,VKACP,0.92,3,   boost,57.86,100681,53.75,29.58,     NaN,35,8.1,8.11,4.01,0,10.24,0,130.56,130.38,0,0,0,0,    NaN,8.07,8.14,8.11,0,0,1,1,15,-32.7595039,142.4868699,71,2025,4,23,3,32,1,0,0,176,0,1,0.6,0.8,0,0,29,26,0,28,35,22,30,0,43,0,0,0,0,30,0,0,0,42,0,0,0,0,0,36,23,0,0,29,0,0,,,,,,,,,,,,,,,,,,,,,,,,,,,,,,,,,,,,,,,,,,,,,,,,,,,,,,,
6,6608,9,VKACP,0.93,3,   boost,75.02,100677,54.08,29.91,     NaN,35,8.1,8.11,4.01,0,10.24,0,130.56,130.38,0,0,0,0,    NaN,8.07,8.14,8.11,0,0,1,1,15,-32.7595039,142.4868699,71,2025,4,23,3,32,1,0,0,176,0,1,0.6,0.8,0,0,29,26,0,28,35,22,30,0,43,0,0,0,0,30,0,0,0,42,0,0,0,0,0,36,23,0,0,29,0,0,,,,,,,,,,,,,,,,,,,,,,,,,,,,,,,,,,,,,,,,,,,,,,,,,,,,,,,
6,6608,9,VKACP,0.94,3,   boost,66.69,100677,54.08,29.91,     NaN,35,8.1,8.11,4.01,0,10.24,0,130.56,130.38,0,0,0,0,    NaN,8.07,8.14,8.11,0,0,1,1,15,-32.7595039,142.4868699,71,2025,4,23,3,32,1,0,0,176,0,1,0.6,0.8,0,0,29,26,0,28,35,22,30,0,43,0,0,0,0,30,0,0,0,42,0,0,0,0,0,36,23,0,0,29,0,0,,,,,,,,,,,,,,,,,,,,,,,,,,,,,,,,,,,,,,,,,,,,,,,,,,,,,,,
6,6608,9,VKACP,0.95,3,   boost,61.29,100670,54.67,30.5,     NaN,35,8.1,8.11,4.01,0,10.24,0,130.56,130.38,0,0,0,0,    NaN,8.07,8.14,8.11,0,0,1,1,15,-32.7595039,142.4868699,71,2025,4,23,3,32,1,0,0,176,0,1,0.6,0.8,0,0,29,26,0,28,35,22,30,0,43,0,0,0,0,30,0,0,0,42,0,0,0,0,0,36,23,0,0,29,0,0,,,,,,,,,,,,,,,,,,,,,,,,,,,,,,,,,,,,,,,,,,,,,,,,,,,,,,,
6,6608,9,VKACP,0.96,3,   boost,98.56,100665,55.09,30.92,     NaN,35,8.1,8.11,4.01,0,10.24,0,130.56,130.38,0,0,0,0,    NaN,8.07,8.14,8.11,0,0,1,1,15,-32.7595039,142.4868699,71,2025,4,23,3,32,1,0,0,176,0,1,0.6,0.8,0,0,29,26,0,28,35,22,30,0,43,0,0,0,0,30,0,0,0,42,0,0,0,0,0,36,23,0,0,29,0,0,,,,,,,,,,,,,,,,,,,,,,,,,,,,,,,,,,,,,,,,,,,,,,,,,,,,,,,
6,6608,9,VKACP,0.97,3,   boost,78.45,100651,56.26,32.09,     NaN,35,8.1,8.11,4.01,0,10.24,0,130.56,130.38,0,0,0,0,    NaN,8.07,8.14,8.11,0,0,1,1,15,-32.7595039,142.4868699,71,2025,4,23,3,32,1,0,0,176,0,1,0.6,0.8,0,0,29,26,0,28,35,22,30,0,43,0,0,0,0,30,0,0,0,42,0,0,0,0,0,36,23,0,0,29,0,0,,,,,,,,,,,,,,,,,,,,,,,,,,,,,,,,,,,,,,,,,,,,,,,,,,,,,,,
6,6608,9,VKACP,0.98,3,   boost,60.8,100635,57.6,33.43,     NaN,35,8.1,8.1,4.02,0,10.24,0,130.56,130.38,0,0,0,0,    NaN,8.08,8.13,8.12,0.04,0,1,1,15,-32.7595039,142.4868699,71,2025,4,23,3,32,1,0,0,176,0,1,0.6,0.8,0,0,29,26,0,28,35,22,30,0,43,0,0,0,0,30,0,0,0,42,0,0,0,0,0,36,23,0,0,29,0,0,,,,,,,,,,,,,,,,,,,,,,,,,,,,,,,,,,,,,,,,,,,,,,,,,,,,,,,
6,6608,9,VKACP,0.98,3,   boost,60.8,100635,57.6,33.43,     NaN,35,8.1,8.1,4.02,0,10.24,0,130.56,130.38,0,0,0,0,    NaN,8.08,8.13,8.12,0.04,0,1,1,15,-32.7595039,142.4868699,71,2025,4,23,3,32,1,0,0,176,0,1,0.6,0.8,0,0,29,26,0,28,35,22,30,0,43,0,0,0,0,30,0,0,0,42,0,0,0,0,0,36,23,0,0,29,0,0,,,,,,,,,,,,,,,,,,,,,,,,,,,,,,,,,,,,,,,,,,,,,,,,,,,,,,,
6,6608,9,VKACP,0.99,3,   boost,74.53,100647,56.59,32.42,     NaN,35,8.1,8.1,4.02,0.05,10.26,0,130.38,130.38,0,0,0,0,    NaN,8.08,8.13,8.12,0.04,0,1,1,15,-32.7595039,142.4868699,71,2025,4,23,3,32,1,0,0,176,0,1,0.6,0.8,0,0,29,26,0,28,35,22,30,0,43,0,0,0,0,30,0,0,0,42,0,0,0,0,0,36,23,0,0,29,0,0,,,,,,,,,,,,,,,,,,,,,,,,,,,,,,,,,,,,,,,,,,,,,,,,,,,,,,,
6,6608,9,VKACP,1,3,   boost,74.04,100647,56.59,32.42,     NaN,35,8.1,8.1,4.02,0.05,10.26,0,130.38,130.38,0,0,0,0,    NaN,8.08,8.13,8.12,0.04,0,1,1,15,-32.7595039,142.4868699,71,2025,4,23,3,32,1,0,0,176,0,1,0.6,0.8,0,0,29,26,0,28,35,22,30,0,43,0,0,0,0,30,0,0,0,42,0,0,0,0,0,36,23,0,0,29,0,0,,,,,,,,,,,,,,,,,,,,,,,,,,,,,,,,,,,,,,,,,,,,,,,,,,,,,,,
6,6608,9,VKACP,1.01,3,   boost,66.19,100613,59.44,35.27,     NaN,35,8.1,8.1,4.02,0.05,10.26,0,130.38,130.38,0,0,0,0,    NaN,8.08,8.13,8.12,0.04,0,1,1,15,-32.7595039,142.4868699,71,2025,4,23,3,32,1,0,0,176,0,1,0.6,0.8,0,0,29,26,0,28,35,22,30,0,43,0,0,0,0,30,0,0,0,42,0,0,0,0,0,36,23,0,0,29,0,0,,,,,,,,,,,,,,,,,,,,,,,,,,,,,,,,,,,,,,,,,,,,,,,,,,,,,,,
